,POI,latitude,longitude,address,city,postCode
0,Brewery,43.663372,-79.319902,"1001 Eastern Ave (Woodfield Rd), Toronto ON M4L 1A8",Toronto,M4L 1A8
1,Diner,43.665121,-79.321347,"1483 Queen St E, Toronto ON M4L 1E2",Toronto,M4L 1E2
2,Bicycle Store,43.666157,-79.317863,"1592 Queen St E, Toronto ON M4L 1G1",Toronto,M4L 1G1
3,Physician,43.66598,-79.31877,"1566 Queen St E (at Ashdale Ave.), Toronto ON M4L 1E9",Toronto,M4L 1E9
4,Park,43.662892,-79.312532,"Queen St (at Kingston Rd), Toronto ON M4L 1G7",Toronto,M4L 1G7
5,Pizzeria,43.666623,-79.316861,"6 Coxwell Ave (Queen), Toronto ON M4L 3A7",Toronto,M4L 3A7
6,Coffee Shop,43.664574,-79.325048,"1374 Queen St E (at Greenwood Ave), Toronto ON M4L 1C9",Toronto,M4L 1C9
7,Diner,43.666394,-79.316918,"1606 Queen St E (Coxwell Ave), Toronto ON M4L 1G2",Toronto,M4L 1G2
8,Pizzeria,43.664745,-79.324233,"1402 Queen St E (at Greenwood Ave.), Toronto ON M4L 1C9",Toronto,M4L 1C9
9,Coffee Shop,43.669537,-79.448551,"31 Powerhouse St (Lansdowne Ave), Toronto ON M6H 0C7",Toronto,M6H 0C7
10,Car Dealership,43.67205,-79.446429,"3526 Lake Shore Blvd W, Toronto ON M8W 1N6",Toronto,M8W 1N6
11,Performing Arts Venue,43.668652,-79.444527,"27 Primrose Ave, Toronto ON M6H 3V1",Toronto,M6H 3V1
12,Dog Park,43.671997,-79.44946,"1200 Lansdowne Ave, Toronto ON M6H 3Z8",Toronto,M6H 3Z8
13,Primary and Secondary School,43.675637,-79.44345,"151 Rosemount Ave (at Dufferin St.), Toronto ON M6H 2N1",Toronto,M6H 2N1
14,Recording Studio,43.668935,-79.44373,"330 Geary Ave (at Lightbourn Ave.), Toronto ON M6H 2C7",Toronto,M6H 2C7
15,Convenience Store,43.672605,-79.441139,"1395 Davenport Rd (Dufferin), Toronto ON M6H 2H6",Toronto,M6H 2H6
16,Café,43.673012,-79.440175,"1359 Davenport Rd, Toronto ON M6H 2H5",Toronto,M6H 2H5
17,Bar,43.669324,-79.439163,"229 Geary Ave (at Dufferin St), Toronto ON M6H 2C1",Toronto,M6H 2C1
18,Bicycle Store,43.666157,-79.317863,"1592 Queen St E, Toronto ON M4L 1G1",Toronto,M4L 1G1
19,Pizzeria,43.666623,-79.316861,"6 Coxwell Ave (Queen), Toronto ON M4L 3A7",Toronto,M4L 3A7
20,Diner,43.666394,-79.316918,"1606 Queen St E (Coxwell Ave), Toronto ON M4L 1G2",Toronto,M4L 1G2
21,Burger Joint,43.666774,-79.315529,"1636 Queen St E (btwn Coxwell Ave. & Kingston Rd.), Toronto ON M4L 1G3",Toronto,M4L 1G3
22,Burrito Restaurant,43.666486,-79.316418,"1614 Queen St E (Coxwell Ave.), Toronto ON M4L 1G3",Toronto,M4L 1G3
23,Park,43.662892,-79.312532,"Queen St (at Kingston Rd), Toronto ON M4L 1G7",Toronto,M4L 1G7
24,Pizzeria,43.666794,-79.315251,"1646 Queen St E (at Eastern Ave,), Toronto ON M4L 1G3",Toronto,M4L 1G3
25,Deli,43.666113,-79.316921,"1599 Queen St E, Toronto ON M4L 1E5",Toronto,M4L 1E5
26,Flower Store,43.666243,-79.317456,"1596 Queen St W, Toronto ON M6R 1A8",Toronto,M6R 1A8
27,Church,43.653996,-79.376673,"56 Queen St E, Toronto ON M5C 2Z3",Toronto,M5C 2Z3
28,Music Venue,43.653136,-79.379248,"189 Yonge St (btwn Queen St E & Shuter St), Toronto ON M5B 1M4",Toronto,M5B 1M4
29,Diner,43.65266,-79.378845,"2 Queen St E (Suite #110), Toronto ON M5C 3G7",Toronto,M5C 3G7
30,Dining and Drinking,43.653229,-79.374868,"99 Queen St E, Toronto ON M5C 1S1",Toronto,M5C 1S1
31,Dining and Drinking,43.653321,-79.374369,"111C Queen St E (Church), Toronto ON M5C 1S2",Toronto,M5C 1S2
32,Church,43.654962,-79.377294,"200 Church St (at Shuter St), Toronto ON M5B 1Z2",Toronto,M5B 1Z2
33,Japanese Restaurant,43.651596,-79.374936,"81 Church St (at Adelaide St E), Toronto ON M5C 2G2",Toronto,M5C 2G2
34,Furniture and Home Store,43.653188,-79.379303,"195 Yonge St (at Queen St E), Toronto ON M5B 1M4",Toronto,M5B 1M4
35,American Restaurant,43.65151,-79.379223,"1 Richmond St W (Yonge Street), Toronto ON M5H 3W4",Toronto,M5H 3W4
36,Gay Bar,43.664198,-79.379979,"457 Church St (Alexander), Toronto ON M4Y 2C5",Toronto,M4Y 2C5
37,Sushi Restaurant,43.663917,-79.379982,"451 Church St, Toronto ON M4Y 2C5",Toronto,M4Y 2C5
38,Juice Bar,43.664459,-79.380255,"471 Church St (btwn Alexander & Maitland St.), Toronto ON M4Y 2C5",Toronto,M4Y 2C5
39,Pizzeria,43.664407,-79.3802,"469 Church St (at Wellesley St.), Toronto ON M4Y 2C5",Toronto,M4Y 2C5
40,Sake Bar,43.664243,-79.380127,"459 Church St (Maitland), Toronto ON M4Y 2C5",Toronto,M4Y 2C5
41,Pub,43.66457,-79.380272,"475 Church St (at Maitland St.), Toronto ON M4Y 2C5",Toronto,M4Y 2C5
42,Gay Bar,43.66299,-79.3796,"425 Church St (at Wood St.), Toronto ON M4Y 2C3",Toronto,M4Y 2C3
43,Coffee Shop,43.665059,-79.380491,"485 Church St (at Maitland St.), Toronto ON M4Y 2C6",Toronto,M4Y 2C6
44,Grocery Store,43.661978,-79.379626,"60 Carlton St, Toronto ON M5B 1J2",Toronto,M5B 1J2
45,Café,43.658525,-79.385436,"84 Gerrard St W (Gerrard & LaPlante), Toronto ON M5G 1J5",Toronto,M5G 1J5
46,Italian Restaurant,43.659865,-79.388642,"101 College St, Toronto ON M5G 1L7",Toronto,M5G 1L7
47,"Cafe, Coffee, and Tea House",43.658539,-79.385251,"70 Gerrard St W (Bay St), Toronto ON M5G 1J5",Toronto,M5G 1J5
48,Fast Food Restaurant,43.654736,-79.389695,"250 Dundas St W (Simcoe Street), Toronto ON M5T 2Z5",Toronto,M5T 2Z5
49,Café,43.654316,-79.390843,"281 Dundas St W (St Patrick And Dundas St W), Toronto ON M5T 1G1",Toronto,M5T 1G1
50,Coffee Shop,43.660059,-79.385961,"770 Bay St, Toronto ON M5G 0A6",Toronto,M5G 0A6
51,Fast Food Restaurant,43.654727,-79.387496,"207 Dundas St W (at University Ave), Toronto ON M5G 1C8",Toronto,M5G 1C8
52,Ramen Restaurant,43.65503,-79.386422,"179 Dundas St W (btwn Centre Ave. & Chestnut St.), Toronto ON M5G 1C7",Toronto,M5G 1C7
53,Sushi Restaurant,43.655117,-79.38522,"122 Elizabeth St (at Dundas St. W), Toronto ON M5G 1P5",Toronto,M5G 1P5
54,Restaurant,43.656191,-79.383568,"20 Dundas St E (at Bay St), Toronto ON M5B 2L6",Toronto,M5B 2L6
55,Miscellaneous Store,43.656087,-79.383458,"595 Bay St (at Dundas St W), Toronto ON M5G 2C2",Toronto,M5G 2C2
56,Bar,43.65738,-79.38343,"35 Elm St (at Bay St.), Toronto ON M5G 1H1",Toronto,M5G 1H1
57,Bookstore,43.657051,-79.380993,"329 Yonge St (at Dundas St E), Toronto ON M5B 1R7",Toronto,M5B 1R7
58,Chinese Restaurant,43.656628,-79.383731,"66 Edward St (Bay Street), Toronto ON M5G 1C9",Toronto,M5G 1C9
59,Bookstore,43.65705,-79.381788,"10 Edward St (at Yonge St), Toronto ON M5G 1C9",Toronto,M5G 1C9
60,New American Restaurant,43.655861,-79.381926,"1 Dundas St W, Toronto ON M5G 1Z3",Toronto,M5G 1Z3
61,Fast Food Restaurant,43.657618,-79.381691,"340 Yonge St (at Gould St), Toronto ON M5B 1R8",Toronto,M5B 1R8
62,Seafood Restaurant,43.657643,-79.382116,"7 Elm St (at Yonge St.), Toronto ON M5G 1H1",Toronto,M5G 1H1
63,Fast Food Restaurant,43.656829,-79.380958,"323 Yonge St (Yonge & Dundas), Toronto ON M5B 1R7",Toronto,M5B 1R7
64,Bakery,43.66431,-79.415537,"656 Bloor St W, Toronto ON M6G 1K9",Toronto,M6G 1K9
65,Korean Restaurant,43.664022,-79.415631,"661 Bloor St W (Manning), Toronto ON M6G 1L1",Toronto,M6G 1L1
66,Cosmetics Store,43.664395,-79.41513,"644 Bloor St W, Toronto ON M6G 1K9",Toronto,M6G 1K9
67,Korean Restaurant,43.664633,-79.414186,"620 Bloor St W (btwn.  Elucid Ave. & Palmerston Ave.), Toronto ON M6G 1K7",Toronto,M6G 1K7
68,Café,43.664876,-79.413149,"600 Bloor St W (btwn Markham St. & Palmerston Ave.), Toronto ON M6G 1K4",Toronto,M6G 1K4
69,Bubble Tea Shop,43.664296,-79.415722,"660 1/2 Bloor St W (at Manning Ave), Toronto ON M6G 1K9",Toronto,M6G 1K9
70,Café,43.664557,-79.412911,"605 Bloor St W, Toronto ON M6G 1K6",Toronto,M6G 1K6
71,Korean Restaurant,43.664035,-79.415446,"659 Bloor St W, Toronto ON M6G 1L1",Toronto,M6G 1L1
72,Park,43.676047,-79.390004,"1 Ramsden Rd (Yonge Street), Toronto ON M6E 2N1",Toronto,M6E 2N1
73,BBQ Joint,43.6771,-79.389423,"4 Crescent Rd (Yonge), Toronto ON M4W 1S9",Toronto,M4W 1S9
74,Bar,43.677673,-79.390029,"1068 Yonge St (btwn Roxborough St. & Gibson Ave.), Toronto ON M4W 2L4",Toronto,M4W 2L4
75,Sports Bar,43.673366,-79.388267,"890 Yonge St (at Church St.), Toronto ON M4W 3P4",Toronto,M4W 3P4
76,Coffee Shop,43.677934,-79.390305,"1088 Yonge St (at Roxborough St), Toronto ON M4W 2L4",Toronto,M4W 2L4
77,Caribbean Restaurant,43.672491,-79.387941,"876 Yonge St (Scollard St), Toronto ON M4W 2J1",Toronto,M4W 2J1
78,Music Venue,43.673144,-79.388232,"888 Yonge St (Davenport), Toronto ON M4W 2J2",Toronto,M4W 2J2
79,Café,43.678274,-79.390265,"1094 Yonge St (Roxborough Street West), Toronto ON M4W 2L6",Toronto,M4W 2L6
80,Juice Bar,43.678861,-79.390686,"5 MacPherson Ave (Yonge St.), Toronto ON M5R 1W7",Toronto,M5R 1W7
81,Library,43.671847,-79.386762,"789 Yonge St (btwn Collier & Asquith Ave), Toronto ON M4W 2G8",Toronto,M4W 2G8
82,Italian Restaurant,43.674983,-79.396149,"202 Davenport Rd, Toronto ON M5R 1J2",Toronto,M5R 1J2
83,Chinese Restaurant,43.674104,-79.398207,"265 Davenport Rd, Toronto ON M5R 1J9",Toronto,M5R 1J9
84,Café,43.673676,-79.396362,"131 Ave Rd, Toronto ON M5R 2H7",Toronto,M5R 2H7
85,Italian Restaurant,43.673676,-79.396362,"116A Rd Ave, Toronto ON M5R 2H4",Toronto,M5R 2H4
86,Spiritual Center,43.676934,-79.397115,"243 Ave Rd (Roxborough St. W.), Toronto ON M5R 2J6",Toronto,M5R 2J6
87,Buffet,43.676941,-79.397023,"243 Ave Rd (DuPont), Toronto ON M5R 2J6",Toronto,M5R 2J6
88,Organic Grocery,43.671818,-79.394896,"87 Ave Rd (Davenport Rd), Toronto ON M5R 3R9",Toronto,M5R 3R9
89,Bistro,43.675034,-79.400086,"166 Bedford Rd (Dupont St), Toronto ON M5R 2K9",Toronto,M5R 2K9
90,Bakery,43.672072,-79.395264,"87 Ave Rd (In Yorkville Mall), Toronto ON M5R 3R9",Toronto,M5R 3R9
91,Bookstore,43.671885,-79.387002,"789 Yonge St (Asquith Ave), Toronto ON M4W 2G8",Toronto,M4W 2G8
92,Library,43.671847,-79.386762,"789 Yonge St (btwn Collier & Asquith Ave), Toronto ON M4W 2G8",Toronto,M4W 2G8
93,Caribbean Restaurant,43.672491,-79.387941,"876 Yonge St (Scollard St), Toronto ON M4W 2J1",Toronto,M4W 2J1
94,Italian Restaurant,43.671608,-79.388502,"17 Yorkville Ave (Yonge), Toronto ON M4W 1L1",Toronto,M4W 1L1
95,Café,43.671722,-79.38693,"789 Yonge St (at Asquith Ave.), Toronto ON M4W 2G8",Toronto,M4W 2G8
96,Greek Restaurant,43.67238,-79.387923,"874 Yonge St (Davenport), Toronto ON M4W 2J1",Toronto,M4W 2J1
97,Italian Restaurant,43.672057,-79.389275,"53 Scollard St (Bay Street), Toronto ON M5R 0B2",Toronto,M5R 0B2
98,Music Venue,43.673144,-79.388232,"888 Yonge St (Davenport), Toronto ON M4W 2J2",Toronto,M4W 2J2
99,Tobacco Store,43.671159,-79.387729,"8 Cumberland St (At Yonge Street), Toronto ON M4W 1J5",Toronto,M4W 1J5
100,Arts and Entertainment,43.671677,-79.389869,"60 Yorkville Ave (at Four Seasons Hotel), Toronto ON M4W 0A4",Toronto,M4W 0A4
101,Bicycle Store,43.664873,-79.35203,"341 Broadview Ave (Broadview and Gerrard), Toronto ON M4M 2H1",Toronto,M4M 2H1
102,Coffee Shop,43.663339,-79.351506,"265 Broadview Ave (at Allen Ave), Toronto ON M4M 2G8",Toronto,M4M 2G8
103,Bakery,43.660455,-79.350254,"153 Broadview Ave (Kintyre), Toronto ON M4M 2E9",Toronto,M4M 2E9
104,Curling Ice,43.659913,-79.349981,"131 Broadview Ave (at Queen St), Toronto ON M4M 2E9",Toronto,M4M 2E9
105,Coffee Shop,43.660011,-79.354064,"2 Matilda St, Toronto ON M4M 1L9",Toronto,M4M 1L9
106,Miscellaneous Store,43.662739,-79.35127,"253 Broadview Ave, Toronto ON M4M 2G6",Toronto,M4M 2G6
107,Elementary School,43.662355,-79.350368,"885 Dundas St E, Toronto ON M4M 1R4",Toronto,M4M 1R4
108,Asian Restaurant,43.665637,-79.352338,"588 Gerrard St E (at Broadview Ave), Toronto ON M4M 1Y3",Toronto,M4M 1Y3
109,Vietnamese Restaurant,43.665867,-79.351486,"610 Gerrard St E (Gerrard & Broadview), Toronto ON M4M 1Y3",Toronto,M4M 1Y3
110,Diner,43.658748,-79.351339,"678 Queen St E, Toronto ON M4M 1G8",Toronto,M4M 1G8
111,Japanese Restaurant,43.646437,-79.378743,"161 Bay St, Toronto ON M5J 2S1",Toronto,M5J 2S1
112,Museum,43.647047,-79.377298,"30 Yonge St (at Brookfield Pl.), Toronto ON M5E 1X8",Toronto,M5E 1X8
113,Bar,43.647128,-79.379274,"181 Bay St (at Wellington St. W), Toronto ON M5J 2T3",Toronto,M5J 2T3
114,Concert Hall,43.646226,-79.376232,"1 Front St E (at Yonge St), Toronto ON M5E 1B2",Toronto,M5E 1B2
115,Bistro,43.647336,-79.376409,"4 Front St E (at Yonge St.), Toronto ON M5E 1G4",Toronto,M5E 1G4
116,Pub,43.6475,-79.379567,"187 Bay St (Wellington St W), Toronto ON M5L 1G5",Toronto,M5L 1G5
117,Fast Food Restaurant,43.647128,-79.379274,"181 Bay St (in Brookfield Place), Toronto ON M5J 2T3",Toronto,M5J 2T3
118,Bakery,43.648546,-79.379079,"25 King St W, Toronto ON M5L 2A1",Toronto,M5L 2A1
119,Coffee Shop,43.644847,-79.380547,"65 Front St W (btwn Bay St & York St), Toronto ON M5J 1E6",Toronto,M5J 1E6
120,Steakhouse,43.646718,-79.374862,"26 the Esplanade, Toronto ON M5E 1A6",Toronto,M5E 1A6
121,Park,43.665851,-79.361023,"500 Gerrard St (at River St.), Toronto ON M5A 2H3",Toronto,M5A 2H3
122,Other Great Outdoors,43.66338,-79.358713,"230 Oak St (River), Toronto ON M5A 2E2",Toronto,M5A 2E2
123,Bakery,43.660688,-79.359455,"665 Dundas St E (Tubman), Toronto ON M5A 0P4",Toronto,M5A 0P4
124,Gift Store,43.667353,-79.361214,"201 Winchester St (at Sumach St), Toronto ON M4X 1B8",Toronto,M4X 1B8
125,Swimming Pool,43.661181,-79.36117,"640 Dundas St E (at Sumach St.), Toronto ON M5A 2B8",Toronto,M5A 2B8
126,Library,43.665864,-79.353075,"370 Broadview Ave (at Gerrard St E), Toronto ON M4K 2M8",Toronto,M4K 2M8
127,Concert Hall,43.659814,-79.362216,"585 Dundas St E (btwn Regent & Sumach), Toronto ON M5A 2B7",Toronto,M5A 2B7
128,Asian Restaurant,43.665637,-79.352338,"588 Gerrard St E (at Broadview Ave), Toronto ON M4M 1Y3",Toronto,M4M 1Y3
129,Coffee Shop,43.660011,-79.354064,"2 Matilda St, Toronto ON M4M 1L9",Toronto,M4M 1L9
130,Sushi Restaurant,43.662698,-79.364263,"358 Gerrard St E, Toronto ON M5A 2G7",Toronto,M5A 2G7
131,Café,43.657243,-79.376021,"106 Mutual St (btwn Dundas & Gould St), Toronto ON M5B 2R7",Toronto,M5B 2R7
132,Japanese Restaurant,43.65689,-79.376245,"134 Dundas St E, Toronto ON M5B 1E2",Toronto,M5B 1E2
133,Ramen Restaurant,43.656294,-79.377506,"91 Dundas St E (at Church St), Toronto ON M5B 2C8",Toronto,M5B 2C8
134,Church,43.654962,-79.377294,"200 Church St (at Shuter St), Toronto ON M5B 1Z2",Toronto,M5B 1Z2
135,Burrito Restaurant,43.656331,-79.378541,"74 Dundas St E, Toronto ON M5B 1C7",Toronto,M5B 1C7
136,Museum,43.655678,-79.37825,"82 Bond St, Toronto ON M5B 1X2",Toronto,M5B 1X2
137,Event Service,43.65799,-79.378103,"63 Gould St (Chruch), Toronto ON M5B 1E9",Toronto,M5B 1E9
138,Jazz and Blues Venue,43.655781,-79.379155,"251 Victoria St (btwn Dundas St. E & Shuter St.), Toronto ON M5B 1T8",Toronto,M5B 1T8
139,Pizzeria,43.656609,-79.380128,"10 Dundas St E, Toronto ON M5B 2G9",Toronto,M5B 2G9
140,Dining and Drinking,43.653321,-79.374369,"111C Queen St E (Church), Toronto ON M5C 1S2",Toronto,M5C 1S2
141,Bistro,43.666975,-79.344694,"819 Gerrard St E, Toronto ON M4M 1Y8",Toronto,M4M 1Y8
142,Chinese Restaurant,43.666856,-79.345563,"797 Gerrard St E (at Logan Ave), Toronto ON M4M 1Y5",Toronto,M4M 1Y5
143,Caribbean Restaurant,43.667754,-79.343227,"842 Gerrard St E (Carlaw Avenue), Toronto ON M4M 1Y7",Toronto,M4M 1Y7
144,Thai Restaurant,43.666716,-79.347505,"738 Gerrard St E, Toronto ON M4M 1Y3",Toronto,M4M 1Y3
145,Beer Store,43.667295,-79.344931,"800 Gerrard St E (Logan Ave.), Toronto ON M4M 1Y7",Toronto,M4M 1Y7
146,Vietnamese Restaurant,43.666315,-79.349172,"688 Gerrard St E (at De Grassi St.), Toronto ON M4M 1Y3",Toronto,M4M 1Y3
147,Wine Bar,43.666492,-79.344383,"817 Gerrard St E, Toronto ON M4M 1Y8",Toronto,M4M 1Y8
148,Diner,43.665896,-79.349526,"248 Boulton Ave (Gerrard St.), Toronto ON M4M 2K1",Toronto,M4M 2K1
149,Cocktail Bar,43.668171,-79.339786,"955 Gerrard St E (Pape and Gerrard Street East), Toronto ON M4M 1Z4",Toronto,M4M 1Z4
150,Café,43.673012,-79.440175,"1359 Davenport Rd, Toronto ON M6H 2H5",Toronto,M6H 2H5
151,Home Appliance Store,43.673458,-79.439452,"1335 Davenport Rd (Dufferin), Toronto ON M6H 2H4",Toronto,M6H 2H4
152,Bar,43.669324,-79.439163,"229 Geary Ave (at Dufferin St), Toronto ON M6H 2C1",Toronto,M6H 2C1
153,Sushi Restaurant,43.677452,-79.443975,"1201 St Clair Ave W (at Dufferin St), Toronto ON M6E 1B5",Toronto,M6E 1B5
154,Mexican Restaurant,43.677803,-79.444546,"1216 Saint Clair Ave W (btwn St. Claire Gardens & Dufferin), Toronto ON M6E 1B4",Toronto,M6E 1B4
155,Middle Eastern Restaurant,43.669358,-79.4387,"217 Geary Ave, Toronto ON M6H 2C1",Toronto,M6H 2C1
156,Brewery,43.669939,-79.436128,"165 Geary Ave (at Barlett Ave N), Toronto ON M6H 2B8",Toronto,M6H 2B8
157,Automotive Repair Shop,43.658022,-79.339629,"519 Eastern Ave, Toronto ON M4M 1C6",Toronto,M4M 1C6
158,Ice Cream Parlor,43.660768,-79.342027,"920 Queen St E (btwn Logan Ave. & Morse St.), Toronto ON M4M 1J5",Toronto,M4M 1J5
159,Bookstore,43.660696,-79.34225,"914 Queen St E, Toronto ON M4M 1J5",Toronto,M4M 1J5
160,Café,43.660474,-79.342215,"889 Queen St E (Logan Ave), Toronto ON M4M 1J4",Toronto,M4M 1J4
161,Pet Supplies Store,43.660939,-79.341213,"946 Queen St E (at Carlaw Ave.), Toronto ON M4M 1J7",Toronto,M4M 1J7
162,Coffee Shop,43.661309,-79.338419,"983 Queen St E (at Pape Ave), Toronto ON M4M 1K2",Toronto,M4M 1K2
163,Lounge,43.660645,-79.3414,"915 Queen St E (Morse St.), Toronto ON M4M 1J4",Toronto,M4M 1J4
164,Fish Market,43.660511,-79.343249,"888 Queen St E (at Booth Ave.), Toronto ON M4M 1J3",Toronto,M4M 1J3
165,Pizzeria,43.666892,-79.330277,"1555 Dundas St E, Toronto ON M4L 1K9",Toronto,M4L 1K9
166,Park,43.669486,-79.329331,"150 Greenwood Ave (at Dundas), Toronto ON M4L 2R1",Toronto,M4L 2R1
167,Lounge,43.663791,-79.328899,"5 Hastings Ave (at Queen St E), Toronto ON M4L 2L1",Toronto,M4L 2L1
168,BBQ Joint,43.66368,-79.328881,"1276 Queen St E (Hastings), Toronto ON M4L 1C4",Toronto,M4L 1C4
169,Chinese Restaurant,43.664482,-79.325548,"4 Greenwood Ave (at Queen), Toronto ON M4L 2P4",Toronto,M4L 2P4
170,Coffee Shop,43.664574,-79.325048,"1374 Queen St E (at Greenwood Ave), Toronto ON M4L 1C9",Toronto,M4L 1C9
171,Bistro,43.671324,-79.32719,"1300 Gerrard St E (Greenwood ave), Toronto ON M4L 1Y7",Toronto,M4L 1Y7
172,Egyptian Restaurant,43.671682,-79.328462,"226 Greenwood Ave (Sandford Avenue), Toronto ON M4L 2R2",Toronto,M4L 2R2
173,Skating Rink,43.669328,-79.329961,"150 Greenwood Ave (Alton Avenue Between Gerard And Dundas), Toronto ON M4L 2P8",Toronto,M4L 2P8
174,Café,43.66388,-79.326107,"1347 Queen St E (Knox Aveneue), Toronto ON M4L 1C6",Toronto,M4L 1C6
175,Cocktail Bar,43.669037,-79.337117,"1026 Gerrard St E, Toronto ON M4M 1Z5",Toronto,M4M 1Z5
176,Caribbean Restaurant,43.668813,-79.338671,"1000 Gerrard St E, Toronto ON M4M 3G6",Toronto,M4M 3G6
177,Café,43.669109,-79.336894,"1042 Gerrard St E, Toronto ON M4M 1Z5",Toronto,M4M 1Z5
178,Cocktail Bar,43.668171,-79.339786,"955 Gerrard St E (Pape and Gerrard Street East), Toronto ON M4M 1Z4",Toronto,M4M 1Z4
179,Bar,43.668645,-79.337102,"1029 Gerrard St E, Toronto ON M4M 1Z6",Toronto,M4M 1Z6
180,Cuban Restaurant,43.669037,-79.337117,"1030 Gerrard St E, Toronto ON M4M 1Z5",Toronto,M4M 1Z5
181,BBQ Joint,43.669254,-79.33645,"1044 Gerrard St E (Galt Avenue), Toronto ON M4M 1Z8",Toronto,M4M 1Z8
182,Café,43.6752,-79.343517,"590 Pape Ave (at Wroxeter Ave), Toronto ON M4K 3R8",Toronto,M4K 3R8
183,Pizzeria,43.668007,-79.340508,"949 Gerrard St E (Pape Ave.), Toronto ON M4M 1Z1",Toronto,M4M 1Z1
184,Bakery,43.662013,-79.334884,"1121 Queen St E (at Bertmount), Toronto ON M4M 1K9",Toronto,M4M 1K9
185,Italian Restaurant,43.661973,-79.335438,"1111 Queen St E (at Caroline Ave.), Toronto ON M4M 1K7",Toronto,M4M 1K7
186,Retail,43.662267,-79.335251,"1122 Queen St E, Toronto ON M4M 1K8",Toronto,M4M 1K8
187,"Cafe, Coffee, and Tea House",43.663023,-79.33177,"1186 Queen St E (Curzon), Toronto ON M4M 1L4",Toronto,M4M 1L4
188,Fast Food Restaurant,43.662589,-79.333899,"5 Coady Ave (at Queen St E), Toronto ON M4M 2Y9",Toronto,M4M 2Y9
189,Car Dealership,43.658176,-79.336708,"601 Eastern Ave (at Heward Av), Toronto ON M4M 1E3",Toronto,M4M 1E3
190,Vietnamese Restaurant,43.662157,-79.334439,"1135 Queen St E (Larchmount Ave), Toronto ON M4M 1K9",Toronto,M4M 1K9
191,Coffee Shop,43.661309,-79.338419,"983 Queen St E (at Pape Ave), Toronto ON M4M 1K2",Toronto,M4M 1K2
192,Grocery Store,43.657911,-79.330261,"1005 Lake Shore Blvd E, Toronto ON M4M 1B4",Toronto,M4M 1B4
193,Pizzeria,43.689443,-79.354662,"1201 Broadview Ave (at Gamble Ave.), Toronto ON M4K 2T1",Toronto,M4K 2T1
194,Convenience Store,43.690429,-79.355006,"1221 Broadview Ave (Broadview & O'Connor), Toronto ON M4K 2T3",Toronto,M4K 2T3
195,Cannabis Store,43.690429,-79.355006,"1229 Broadview Ave, Toronto ON M4K 2T3",Toronto,M4K 2T3
196,Convenience Store,43.687642,-79.35316,"1120 Logan Ave, East York ON M4K 3G7",East York,M4K 3G7
197,Discount Store,43.686259,-79.355982,"1099 Broadview Ave, East York ON M4K 2S4",East York,M4K 2S4
198,Bakery,43.688284,-79.348163,"1017 Pape Ave (Gowan), East York ON M4K 3V8",East York,M4K 3V8
199,Burrito Restaurant,43.656331,-79.378541,"74 Dundas St E, Toronto ON M5B 1C7",Toronto,M5B 1C7
200,Ramen Restaurant,43.656294,-79.377506,"91 Dundas St E (at Church St), Toronto ON M5B 2C8",Toronto,M5B 2C8
201,Pizzeria,43.656609,-79.380128,"10 Dundas St E, Toronto ON M5B 2G9",Toronto,M5B 2G9
202,Museum,43.655678,-79.37825,"82 Bond St, Toronto ON M5B 1X2",Toronto,M5B 1X2
203,Jazz and Blues Venue,43.655781,-79.379155,"251 Victoria St (btwn Dundas St. E & Shuter St.), Toronto ON M5B 1T8",Toronto,M5B 1T8
204,Event Service,43.65799,-79.378103,"63 Gould St (Chruch), Toronto ON M5B 1E9",Toronto,M5B 1E9
205,Diner,43.655729,-79.3791,"249 Victoria St (btwn Dundas St E and Shuter St), Toronto ON M5B 1T8",Toronto,M5B 1T8
206,Clothing Store,43.655771,-79.380836,"220 Yonge St (at Dundas St W), Toronto ON M5B 2H1",Toronto,M5B 2H1
207,Plaza,43.65602,-79.380502,"40 Dundas St W (at Yonge St), Toronto ON M5G 2C2",Toronto,M5G 2C2
208,Café,43.657243,-79.376021,"106 Mutual St (btwn Dundas & Gould St), Toronto ON M5B 2R7",Toronto,M5B 2R7
209,Café,43.657243,-79.376021,"106 Mutual St (btwn Dundas & Gould St), Toronto ON M5B 2R7",Toronto,M5B 2R7
210,Japanese Restaurant,43.65689,-79.376245,"134 Dundas St E, Toronto ON M5B 1E2",Toronto,M5B 1E2
211,Urban Park,43.661837,-79.374601,"19 Horticultural Ave (Carlton & Sherbourne), Toronto ON M5A 2P2",Toronto,M5A 2P2
212,Garden,43.662046,-79.374821,"19 Horticultural Ave (Allan Gardens), Toronto ON M5A 2P2",Toronto,M5A 2P2
213,Asian Restaurant,43.655528,-79.374907,"360 Dundas St E, Oakville ON L6H 6Z9",Oakville,L6H 6Z9
214,Ramen Restaurant,43.656294,-79.377506,"91 Dundas St E (at Church St), Toronto ON M5B 2C8",Toronto,M5B 2C8
215,Lake,43.657608,-79.380287,"Victoria St (at Gould St.), Toronto ON M5B 1W1",Toronto,M5B 1W1
216,Church,43.654962,-79.377294,"200 Church St (at Shuter St), Toronto ON M5B 1Z2",Toronto,M5B 1Z2
217,Sandwich Spot,43.65412,-79.36954,"122 Sherbourne St, Toronto ON M5A 2R4",Toronto,M5A 2R4
218,Event Service,43.65799,-79.378103,"63 Gould St (Chruch), Toronto ON M5B 1E9",Toronto,M5B 1E9
219,Golf Course,43.694974,-79.288722,"M1L Toronto, Toronto ON M4C 5S8",Toronto,M4C 5S8
220,Employment Agency,43.69102,-79.289832,"3036 Danforth Ave (at Victoria Park Ave), Toronto ON M4C 1N2",Toronto,M4C 1N2
221,Office Building,43.696021,-79.287436,"40 Teesdale Pl (Pharmacy), Scarborough ON M1L 1L3",Scarborough,M1L 1L3
222,Liquor Store,43.69109,-79.285725,"3111 Danforth Ave (at Victoria Park Ave), Toronto ON M1L 1A9",Toronto,M1L 1A9
223,Beer Store,43.692174,-79.28627,"3130 Danforth Ave (at Victoria Park Ave), Scarborough ON M1L 1B2",Scarborough,M1L 1B2
224,Dining and Drinking,43.691217,-79.289441,"3040 Danforth Ave, Toronto ON M4C 1N2",Toronto,M4C 1N2
225,"Shipping, Freight, and Material Transportation Service",43.691604,-79.287958,"3096 Danforth Ave (Victoria Park), Toronto ON M1L 1B1",Toronto,M1L 1B1
226,Community Center,43.691251,-79.287388,"3079 Danforth Ave (Victoria Park), Toronto ON M1L 1A8",Toronto,M1L 1A8
227,Italian Restaurant,43.691218,-79.288256,"Danforth Ave, Toronto ON M1L 1B1",Toronto,M1L 1B1
228,Farmers Market,43.679994,-79.423753,"601 Christie St (St Clair Avenue West), Toronto ON M6G 4C7",Toronto,M6G 4C7
229,Café,43.68163,-79.425185,"671 Saint Clair Ave W (at Christie St.), Toronto ON M6C 1A7",Toronto,M6C 1A7
230,BBQ Joint,43.681565,-79.425314,"679 Saint Clair Ave W (at Christie St), Toronto ON M6C 1A7",Toronto,M6C 1A7
231,Bakery,43.681406,-79.425944,"693 Saint Clair Ave W (Christie), Toronto ON M6C 1B2",Toronto,M6C 1B2
232,Persian Restaurant,43.68195,-79.425423,"672A St Clair Ave W (Christie & St. Clair W), Toronto ON M6C 1B1",Toronto,M6C 1B1
233,Fish and Chips Shop,43.682273,-79.424071,"636 Saint Clair Ave W (at Wychwood Ave), Toronto ON M6C 1A9",Toronto,M6C 1A9
234,Filipino Restaurant,43.682273,-79.424071,"634 Saint Clair Ave W (Wychwood Avenue), Toronto ON M6C 1A9",Toronto,M6C 1A9
235,Sushi Restaurant,43.682663,-79.421794,"570 St Clair Ave W, Toronto ON M6C 1A5",Toronto,M6C 1A5
236,Ice Cream Parlor,43.682023,-79.419025,"36 Vaughan Rd (btwn Ellsworth Ave. & Hocken Ave.), Toronto ON M6G 2N3",Toronto,M6G 2N3
237,Ice Cream Parlor,43.681566,-79.427607,"283 Rushton Rd, Toronto ON M6C 2X6",Toronto,M6C 2X6
238,Drugstore,43.689378,-79.394328,"1507 Yonge St (at Delisle Ave.), Toronto ON M4T 1Z2",Toronto,M4T 1Z2
239,Dentist,43.691819,-79.395513,"1650 Yonge St (North of st clair), Toronto ON M4T 2A2",Toronto,M4T 2A2
240,Church,43.690238,-79.395635,"1570 Yonge St, Toronto ON M4T 1Z8",Toronto,M4T 1Z8
241,Shoe Store,43.68999,-79.395174,"1566 Yonge St (Heath), Toronto ON M4T 1Z7",Toronto,M4T 1Z7
242,Fried Chicken Joint,43.689827,-79.395102,"1560 Yonge St (Heath St E), Toronto ON M4T 2S9",Toronto,M4T 2S9
243,Asian Restaurant,43.688692,-79.394499,"1496 Yonge St (St. Clair), Toronto ON M4T 1Z6",Toronto,M4T 1Z6
244,Dining and Drinking,43.687652,-79.394895,"21B St Clair Ave W, Toronto ON M4V 1K6",Toronto,M4V 1K6
245,Bar,43.68992,-79.394602,"1535 Yonge St, Toronto ON M4T 1Z2",Toronto,M4T 1Z2
246,Pizzeria,43.689541,-79.394401,"1521 Yonge St, Toronto ON M4T 1Z2",Toronto,M4T 1Z2
247,Fast Food Restaurant,43.698371,-79.395763,"21 Davisville Ave (at Yonge St.), Toronto ON M4S 1G3",Toronto,M4S 1G3
248,Café,43.697717,-79.396267,"1881 Yonge St (at Balliol St.), Toronto ON M4S 3C4",Toronto,M4S 3C4
249,Pub,43.696607,-79.396089,"1835 Yonge St (at Merton St.), Toronto ON M4S 1X8",Toronto,M4S 1X8
250,Pizzeria,43.698723,-79.396334,"1900 Yonge St, Toronto ON M4S 1Z2",Toronto,M4S 1Z2
251,Convenience Store,43.69826,-79.395745,"21 Davisville Ave (Yonge), Toronto ON M4S 1G3",Toronto,M4S 1G3
252,Optometrist,43.697717,-79.396267,"1881 Yonge St (Balliol), Toronto ON M4S 3C4",Toronto,M4S 3C4
253,Medical Center,43.696887,-79.396087,"1849 Yonge St (Davisville), Toronto ON M4S 1Y2",Toronto,M4S 1Y2
254,Park,43.697201,-79.399507,"201 Oriole Pky (Chaplin Crescent), Toronto ON M5P 2H4",Toronto,M5P 2H4
255,Pub,43.697293,-79.395918,"1867 Yonge St (btw Merton & Balliol), Toronto ON M4S 1Y5",Toronto,M4S 1Y5
256,Post Office,43.69773,-79.396082,"1881 Yonge St, Toronto ON M4S 3C4",Toronto,M4S 3C4
257,Café,43.64005,-79.396376,"66 Fort York Blvd (Fort York & Spadina), Toronto ON M5V 4A6",Toronto,M5V 4A6
258,Bubble Tea Shop,43.640057,-79.396283,"62 Fort York Blvd, Toronto ON M5V 4A6",Toronto,M5V 4A6
259,Dining and Drinking,43.639971,-79.39669,"82 Fort York Blvd, Toronto ON M5V 4A6",Toronto,M5V 4A6
260,Ramen Restaurant,43.639073,-79.39823,"115 Fort York Blvd (Fort York Blvd & Dan Leckie Way), Toronto ON M5V 0K2",Toronto,M5V 0K2
261,Caribbean Restaurant,43.638994,-79.398544,"121 Fort York Blvd (Dan Leckie Way), Toronto ON M5V 0K2",Toronto,M5V 0K2
262,Bar,43.638856,-79.398896,"135 Fort York Blvd, Toronto ON M5V 0K2",Toronto,M5V 0K2
263,Coffee Shop,43.640219,-79.393271,"2E Spadina Ave (Spadina & Fort York), Toronto ON M5V 3Y5",Toronto,M5V 3Y5
264,Library,43.639252,-79.400408,"190 Fort York Blvd, Toronto ON M5V 0E7",Toronto,M5V 0E7
265,Café,43.637321,-79.396081,"550 Queens Quay W, Toronto ON M5V 3M8",Toronto,M5V 3M8
266,Pub,43.667895,-79.403296,"14 Madison Ave (at Bloor St. W), Toronto ON M5R 2S1",Toronto,M5R 2S1
267,Japanese Restaurant,43.666966,-79.400623,"335 Bloor St W, Toronto ON M5S 1W7",Toronto,M5S 1W7
268,Bubble Tea Shop,43.667463,-79.400749,"337 Bloor St W (at St George St), Toronto ON M5S 1W7",Toronto,M5S 1W7
269,Bakery,43.66642,-79.40582,"370 Bloor St W (btwn Walmer & Dalton Rd), Toronto ON M5S 1X2",Toronto,M5S 1X2
270,Publisher,43.666085,-79.400389,"80 Bpnichol Lane, Toronto ON M5S 3J4",Toronto,M5S 3J4
271,Dining and Drinking,43.667548,-79.400341,"270 Bloor St W (St George), Toronto ON M5S 1V8",Toronto,M5S 1V8
272,Café,43.667466,-79.399159,"321 Bloor St W (at St. George St), Toronto ON M5S 1S5",Toronto,M5S 1S5
273,Museum,43.667346,-79.400029,"327 Bloor St W, Toronto ON M5S 1W7",Toronto,M5S 1W7
274,Café,43.667466,-79.399159,"321 Bloor St W (at St. George St), Toronto ON M5S 1S5",Toronto,M5S 1S5
275,Japanese Restaurant,43.666966,-79.400623,"335 Bloor St W, Toronto ON M5S 1W7",Toronto,M5S 1W7
276,Museum,43.667346,-79.400029,"327 Bloor St W, Toronto ON M5S 1W7",Toronto,M5S 1W7
277,Dining and Drinking,43.667548,-79.400341,"270 Bloor St W (St George), Toronto ON M5S 1V8",Toronto,M5S 1V8
278,Publisher,43.666085,-79.400389,"80 Bpnichol Lane, Toronto ON M5S 3J4",Toronto,M5S 3J4
279,Bubble Tea Shop,43.667463,-79.400749,"337 Bloor St W (at St George St), Toronto ON M5S 1W7",Toronto,M5S 1W7
280,Coffee Shop,43.668547,-79.397414,"1 Beford Ave (at Bloor St. W), Toronto ON M5R 2J7",Toronto,M5R 2J7
281,Cocktail Bar,43.667501,-79.400989,"280 Bloor St W, Toronto ON M5S 1V8",Toronto,M5S 1V8
282,Caterer,43.665414,-79.39958,"2 Sussex Dr, Toronto ON M8V 1W4",Toronto,M8V 1W4
283,Bar,43.648209,-79.384495,"150 King St W (at York St.), Toronto ON M5H 1J9",Toronto,M5H 1J9
284,Café,43.648032,-79.384607,"150 King St W (in the PATH), Toronto ON M5H 1J9",Toronto,M5H 1J9
285,Café,43.648494,-79.382109,"1 First Canadian Pl (btwn Bay & York st), Toronto ON M5X 1C1",Toronto,M5X 1C1
286,Gastropub,43.648972,-79.381718,"100 King St W, Toronto ON M5X 1A9",Toronto,M5X 1A9
287,Pizzeria,43.648456,-79.384955,"155 University Ave (at Pearl St), Toronto ON M5H 3B7",Toronto,M5H 3B7
288,Restaurant,43.64749,-79.381248,"66 Wellington St W (at Bay Street), Toronto ON M5K 1H6",Toronto,M5K 1H6
289,Steakhouse,43.649766,-79.383153,"120 Adelaide St W (at York St), Toronto ON M5H 1T1",Toronto,M5H 1T1
290,Café,43.648724,-79.385137,"165 University Ave (Adelaide St W), Toronto ON M5H 3B8",Toronto,M5H 3B8
291,Dining and Drinking,43.64732,-79.381268,"66 Wellington St W (btwn York & Bay St.), Toronto ON M5K 1J3",Toronto,M5K 1J3
292,Fast Food Restaurant,43.654736,-79.389695,"250 Dundas St W (Simcoe Street), Toronto ON M5T 2Z5",Toronto,M5T 2Z5
293,Café,43.654316,-79.390843,"281 Dundas St W (St Patrick And Dundas St W), Toronto ON M5T 1G1",Toronto,M5T 1G1
294,Ramen Restaurant,43.65503,-79.386422,"179 Dundas St W (btwn Centre Ave. & Chestnut St.), Toronto ON M5G 1C7",Toronto,M5G 1C7
295,Sushi Restaurant,43.654343,-79.390474,"275 Dundas St W, Toronto ON M5T 3K1",Toronto,M5T 3K1
296,Café,43.658525,-79.385436,"84 Gerrard St W (Gerrard & LaPlante), Toronto ON M5G 1J5",Toronto,M5G 1J5
297,Sushi Restaurant,43.655117,-79.38522,"122 Elizabeth St (at Dundas St. W), Toronto ON M5G 1P5",Toronto,M5G 1P5
298,Bar,43.654588,-79.391728,"136 McCaul St (at Dundas St.), Toronto ON M5T 1W2",Toronto,M5T 1W2
299,Fast Food Restaurant,43.653858,-79.390957,"109 McCaul St (at Dundas St. W), Toronto ON M5T 3K5",Toronto,M5T 3K5
300,Japanese Restaurant,43.655187,-79.385793,"157 Dundas St W, Toronto ON M5E 1B4",Toronto,M5E 1B4
301,Fish and Chips Shop,43.68869,-79.392206,"44 St Clair Ave E, Toronto ON M4T 1M9",Toronto,M4T 1M9
302,Bagel Shop,43.687105,-79.393919,"1438 Yonge St, Toronto ON M4T 1Y5",Toronto,M4T 1Y5
303,Library,43.68878,-79.392502,"40 St Clair Ave E (at Yonge St.), Toronto ON M4T 1M9",Toronto,M4T 1M9
304,Bistro,43.685963,-79.393409,"1366 Yonge St (Balmoral Ave.), Toronto ON M4T 3A7",Toronto,M4T 3A7
305,Business and Professional Services,43.688385,-79.390988,"79 St Clair Ave E, Toronto ON M4T 1L8",Toronto,M4T 1L8
306,Grocery Store,43.688634,-79.390654,"81 St Clair Ave E, Toronto ON M4T 1M7",Toronto,M4T 1M7
307,Deli,43.688868,-79.391299,"60 St Clair Ave E (btwn Avoca Ave. & Yonge St.), Toronto ON M4T 1N5",Toronto,M4T 1N5
308,Poutine Restaurant,43.65628,-79.453248,"1556 Bloor St W (Bloor St W & Dundas St W), Toronto ON M6P 1A4",Toronto,M6P 1A4
309,Coffee Shop,43.656167,-79.454025,"1578 Bloor St W, Toronto ON M6P 1A4",Toronto,M6P 1A4
310,Grocery Store,43.655294,-79.450611,"2290 Dundas St W (at Bloor St W), Toronto ON M6R 1X4",Toronto,M6R 1X4
311,Discount Store,43.656636,-79.45223,"2340 Dundas St W, Toronto ON M6P 4A9",Toronto,M6P 4A9
312,Arts and Entertainment,43.657332,-79.448087,"1426 Bloor St W, Toronto ON M6P 3L5",Toronto,M6P 3L5
313,College and University,43.656747,-79.452248,"2340 Dundas St W, Toronto ON M6P 4A9",Toronto,M6P 4A9
314,Physical Therapy Clinic,43.656762,-79.451268,"2340 Dundas St W (Bloor St W), Toronto ON M6P 4A9",Toronto,M6P 4A9
315,Physician,43.656151,-79.452713,"1539 Bloor St W (Dundas St.), Toronto ON M6P 1A5",Toronto,M6P 1A5
316,Pizzeria,43.65593,-79.454968,"1598 Bloor St W (Dundas), Toronto ON M6P 1A7",Toronto,M6P 1A7
317,Library,43.639252,-79.400408,"190 Fort York Blvd, Toronto ON M5V 0E7",Toronto,M5V 0E7
318,Bar,43.638856,-79.398896,"135 Fort York Blvd, Toronto ON M5V 0K2",Toronto,M5V 0K2
319,Ramen Restaurant,43.639073,-79.39823,"115 Fort York Blvd (Fort York Blvd & Dan Leckie Way), Toronto ON M5V 0K2",Toronto,M5V 0K2
320,Caribbean Restaurant,43.638994,-79.398544,"121 Fort York Blvd (Dan Leckie Way), Toronto ON M5V 0K2",Toronto,M5V 0K2
321,Grocery Store,43.641155,-79.402021,"28 Bathurst St (at Front St W), Toronto ON M5V 0R4",Toronto,M5V 0R4
322,"Cafe, Coffee, and Tea House",43.637463,-79.40031,"2 Bruyeres Mews (at Bathurst St), Toronto ON M5V 0G7",Toronto,M5V 0G7
323,Park,43.638742,-79.397383,"50 Fort York Blvd (at Dan Leckie Way), Toronto ON M5V 4A6",Toronto,M5V 4A6
324,Café,43.64005,-79.396376,"66 Fort York Blvd (Fort York & Spadina), Toronto ON M5V 4A6",Toronto,M5V 4A6
325,Brewery,43.640604,-79.403428,"28 Bathurst St, Toronto ON M5V 0R4",Toronto,M5V 0R4
326,Asian Restaurant,43.662735,-79.403221,"81 Harbord St, Toronto ON M5S 1G4",Toronto,M5S 1G4
327,Dessert Shop,43.662762,-79.402851,"73 Harbord St, Toronto ON M5S 1G4",Toronto,M5S 1G4
328,Italian Restaurant,43.663095,-79.402904,"88 Harbord St (Harbord & Spadina), Toronto ON M5S 1G5",Toronto,M5S 1G5
329,Dining and Drinking,43.662838,-79.404126,"196 Robert St, Toronto ON M5S 2K7",Toronto,M5S 2K7
330,French Restaurant,43.662951,-79.403349,"96 Harbord St, Toronto ON M5S 1G6",Toronto,M5S 1G6
331,Bookstore,43.663043,-79.402849,"84 Harbord St (at Spadina Ave.), Toronto ON M5S 1G5",Toronto,M5S 1G5
332,Bakery,43.662951,-79.403349,"100 Harbord St, Toronto ON M5S 1G6",Toronto,M5S 1G6
333,Beer Bar,43.662413,-79.404572,"119 Harbord St (at Major St), Toronto ON M5S 1G7",Toronto,M5S 1G7
334,American Restaurant,43.662604,-79.40348,"89 Harbord St, Toronto ON M5S 1G4",Toronto,M5S 1G4
335,Bakery,43.662478,-79.404442,"115 Harbord St (at Spadina Ave.), Toronto ON M5S 1G7",Toronto,M5S 1G7
336,Seafood Restaurant,43.665351,-79.461253,"2766 Dundas St W, Toronto ON M6P 1Y3",Toronto,M6P 1Y3
337,Burger Joint,43.665019,-79.455822,"1640 Dupont St (Edwin), Toronto ON M6P 3T2",Toronto,M6P 3T2
338,Café,43.664634,-79.455713,"1643 Dupont St, Toronto ON M6P 3S9",Toronto,M6P 3S9
339,Bakery,43.664865,-79.454862,"1617 Dupont St, Toronto ON M6P 3S8",Toronto,M6P 3S8
340,Café,43.664908,-79.455804,"1642 Dupont St (Edwin St), Toronto ON M6P 3T2",Toronto,M6P 3T2
341,Flea Market,43.665184,-79.46277,"390 Keele St (Indian Rd.), Toronto ON M6P 2K8",Toronto,M6P 2K8
342,Organic Grocery,43.668183,-79.464749,"43 Junction Rd, Toronto ON M6N 1B5",Toronto,M6N 1B5
343,Café,43.66509,-79.453308,"1571 Dupont St, Toronto ON M6P 3S5",Toronto,M6P 3S5
344,Jewelry Store,43.670425,-79.456364,"1960 Davenport Rd (Dupont and Lansdown), Toronto ON M6N 1C2",Toronto,M6N 1C2
345,American Restaurant,43.664641,-79.455621,"1635 Dupont St (Dupont & Edwin), Toronto ON M6P 3S9",Toronto,M6P 3S9
346,Poutine Restaurant,43.65628,-79.453248,"1556 Bloor St W (Bloor St W & Dundas St W), Toronto ON M6P 1A4",Toronto,M6P 1A4
347,Coffee Shop,43.656167,-79.454025,"1578 Bloor St W, Toronto ON M6P 1A4",Toronto,M6P 1A4
348,Discount Store,43.656636,-79.45223,"2340 Dundas St W, Toronto ON M6P 4A9",Toronto,M6P 4A9
349,Pizzeria,43.657594,-79.452945,"2385 Dundas St W (at Bloor St W), Toronto ON M6P 1X2",Toronto,M6P 1X2
350,Pizzeria,43.65593,-79.454968,"1598 Bloor St W (Dundas), Toronto ON M6P 1A7",Toronto,M6P 1A7
351,Café,43.659721,-79.453801,"2473 Dundas St W, Toronto ON M6P 1X3",Toronto,M6P 1X3
352,Sushi Restaurant,43.655765,-79.45569,"1620 Bloor St W (Btwn Dorval & Indian Rd.), Toronto ON M6P 1A7",Toronto,M6P 1A7
353,Arts and Entertainment,43.657332,-79.448087,"1426 Bloor St W, Toronto ON M6P 3L5",Toronto,M6P 3L5
354,Bookstore,43.657428,-79.402093,"323 College St, Toronto ON M5T 1S2",Toronto,M5T 1S2
355,Coffee Shop,43.657682,-79.402461,"324 College St, Toronto ON M5T 1S3",Toronto,M5T 1S3
356,Electronics Store,43.657112,-79.403352,"349 College St (at Augusta Ave), Toronto ON M5T 1S5",Toronto,M5T 1S5
357,Diner,43.657689,-79.402369,"320 College St (Major St), Toronto ON M5T 1S3",Toronto,M5T 1S3
358,Café,43.656656,-79.402671,"307 Augusta Ave (Btwn Oxford St & College St), Toronto ON M5T 2M2",Toronto,M5T 2M2
359,Pizzeria,43.657847,-79.401739,"302 College St (at Robert St), Toronto ON M5T 1R9",Toronto,M5T 1R9
360,Gastropub,43.656355,-79.402951,"256 Augusta Ave (at Oxford St), Toronto ON M5T 2L9",Toronto,M5T 2L9
361,Arts and Entertainment,43.656656,-79.402671,"303 Augusta Ave, Toronto ON M5T 2M2",Toronto,M5T 2M2
362,Comic Book Store,43.657428,-79.402093,"319 College St (Spadina), Toronto ON M5T 1S2",Toronto,M5T 1S2
363,Japanese Restaurant,43.660458,-79.378917,"398 Church St (McGill Street), Toronto ON M5B 2A2",Toronto,M5B 2A2
364,Ramen Restaurant,43.660399,-79.378954,"396 Church St (McGill Street), Toronto ON M5B 2A2",Toronto,M5B 2A2
365,Grocery Store,43.661978,-79.379626,"60 Carlton St, Toronto ON M5B 1J2",Toronto,M5B 1J2
366,Monument,43.662114,-79.380069,"60 Carlton St (at Church St), Toronto ON M5B 1J2",Toronto,M5B 1J2
367,Diner,43.662146,-79.377315,"105 Carlton St (Jarvis St), Toronto ON M5B 1M1",Toronto,M5B 1M1
368,Gay Bar,43.66299,-79.3796,"425 Church St (at Wood St.), Toronto ON M4Y 2C3",Toronto,M4Y 2C3
369,Tea Room,43.66125,-79.381147,"20 Carlton St, Toronto ON M5B 2H5",Toronto,M5B 2H5
370,Australian Restaurant,43.659283,-79.381956,"399 Yonge St (Gerrard St.), Toronto ON M5B 1S9",Toronto,M5B 1S9
371,Café,43.661112,-79.381499,"25C Carlton St, Toronto ON M5B 1L4",Toronto,M5B 1L4
372,Department Store,43.659229,-79.382696,"382 Yonge St (Gerrard St), Toronto ON M5B 1S8",Toronto,M5B 1S8
373,Café,43.637321,-79.396081,"550 Queens Quay W, Toronto ON M5V 3M8",Toronto,M5V 3M8
374,Sushi Restaurant,43.636856,-79.397082,"600 Queens Quay W (Bathurst), Toronto ON M5V 3M3",Toronto,M5V 3M3
375,Café,43.637595,-79.393087,"466 Queens Quay W (Spadina), Toronto ON M5V 2Y3",Toronto,M5V 2Y3
376,Sushi Restaurant,43.636941,-79.396675,"550 Queens Quay W, Toronto ON M5V 3M8",Toronto,M5V 3M8
377,Park,43.635457,-79.397793,"659 Queen St W (Bathurst), Toronto ON M6J 1E6",Toronto,M6J 1E6
378,Coffee Shop,43.637753,-79.392458,"10 Lower Spadina Ave (Queens Quay W), Toronto ON M5V 2Z2",Toronto,M5V 2Z2
379,Ramen Restaurant,43.639073,-79.39823,"115 Fort York Blvd (Fort York Blvd & Dan Leckie Way), Toronto ON M5V 0K2",Toronto,M5V 0K2
380,Park,43.638742,-79.397383,"50 Fort York Blvd (at Dan Leckie Way), Toronto ON M5V 4A6",Toronto,M5V 4A6
381,Australian Restaurant,43.659283,-79.381956,"399 Yonge St (Gerrard St.), Toronto ON M5B 1S9",Toronto,M5B 1S9
382,Department Store,43.659229,-79.382696,"382 Yonge St (Gerrard St), Toronto ON M5B 1S8",Toronto,M5B 1S8
383,Coffee Shop,43.658979,-79.383825,"44 Gerrard St W (Yonge St), Toronto ON M5G 2K2",Toronto,M5G 2K2
384,Falafel Restaurant,43.661025,-79.382701,"439 Yonge St (College), Toronto ON M5B 1T3",Toronto,M5B 1T3
385,Grocery Store,43.661521,-79.382827,"2 Carlton St (at Yonge St.), Toronto ON M5B 1J3",Toronto,M5B 1J3
386,"Cafe, Coffee, and Tea House",43.658539,-79.385251,"70 Gerrard St W (Bay St), Toronto ON M5G 1J5",Toronto,M5G 1J5
387,Discount Store,43.660552,-79.384589,"777 Bay St (at College St. W), Toronto ON M5G 2C8",Toronto,M5G 2C8
388,Burger Joint,43.661409,-79.383604,"10 College St (at Yonge St.), Toronto ON M5G 1K2",Toronto,M5G 1K2
389,Karaoke Bar,43.658218,-79.381927,"360 Yonge St (at Elm St.), Toronto ON M5B 1S5",Toronto,M5B 1S5
390,Clothing Store,43.6423,-79.380843,"15 York St (Maple Leaf Square), Toronto ON M5J 0A3",Toronto,M5J 0A3
391,Lounge,43.643211,-79.379118,Toronto ON M5J 2L2,Toronto,M5J 2L2
392,Juice Bar,43.643462,-79.381075,"25 York St (In Telus Tower), Toronto ON M5J 2V5",Toronto,M5J 2V5
393,Café,43.644585,-79.381066,"65 Front St W (York St), Toronto ON M5J 1E6",Toronto,M5J 1E6
394,Beer Bar,43.644898,-79.381397,"65 Front St W, Toronto ON M5J 1E6",Toronto,M5J 1E6
395,Salad Restaurant,43.643146,-79.382333,"18 York St (Bremner Ave), Toronto ON M5J 2T8",Toronto,M5J 2T8
396,Coffee Shop,43.644847,-79.380547,"65 Front St W (btwn Bay St & York St), Toronto ON M5J 1E6",Toronto,M5J 1E6
397,Sports Bar,43.642634,-79.380102,"15 York St (at Bremner Blvd), Toronto ON M5J 0A3",Toronto,M5J 0A3
398,American Restaurant,43.667208,-79.373303,"209 Wellesley St E (btwn Bleecker & Ontario), Toronto ON M4X 1G1",Toronto,M4X 1G1
399,Bakery,43.666615,-79.376062,"154 Wellesley St E (at Sherbourne St), Toronto ON M4Y 1J3",Toronto,M4Y 1J3
400,Music Venue,43.66462,-79.374155,"410 Sherbourne St (at Carlton St.), Toronto ON M4X 1K2",Toronto,M4X 1K2
401,Diner,43.663454,-79.372426,"186 Carlton St (Bleeker St.), Toronto ON M5A 2K6",Toronto,M5A 2K6
402,BBQ Joint,43.663581,-79.370669,"193 Carlton St (at Ontario St.), Toronto ON M5A 2K7",Toronto,M5A 2K7
403,BBQ Joint,43.667842,-79.369195,"601 Parliament St (at Wellesley St. E), Toronto ON M4X 1P9",Toronto,M4X 1P9
404,Indian Restaurant,43.666889,-79.369184,"556 Parliament St (at Prospect St.), Toronto ON M4X 1P6",Toronto,M4X 1P6
405,Steakhouse,43.666769,-79.377817,"515 Jarvis St (Wellesley), Toronto ON M4Y 2H7",Toronto,M4Y 2H7
406,Bar,43.663581,-79.370669,"195 Carlton St, Toronto ON M5A 2K7",Toronto,M5A 2K7
407,Coffee Shop,43.640219,-79.393271,"2E Spadina Ave (Spadina & Fort York), Toronto ON M5V 3Y5",Toronto,M5V 3Y5
408,Coffee Shop,43.637753,-79.392458,"10 Lower Spadina Ave (Queens Quay W), Toronto ON M5V 2Z2",Toronto,M5V 2Z2
409,Café,43.64005,-79.396376,"66 Fort York Blvd (Fort York & Spadina), Toronto ON M5V 4A6",Toronto,M5V 4A6
410,Bubble Tea Shop,43.640057,-79.396283,"62 Fort York Blvd, Toronto ON M5V 4A6",Toronto,M5V 4A6
411,Café,43.637595,-79.393087,"466 Queens Quay W (Spadina), Toronto ON M5V 2Y3",Toronto,M5V 2Y3
412,Stadium,43.641044,-79.388869,Toronto ON M5V 1J1,Toronto,M5V 1J1
413,Scenic Lookout,43.637702,-79.391608,"1 Spadina Cres (at Queens Quay W), Toronto ON M5S 2J5",Toronto,M5S 2J5
414,Dining and Drinking,43.639971,-79.39669,"82 Fort York Blvd, Toronto ON M5V 4A6",Toronto,M5V 4A6
415,Ramen Restaurant,43.639073,-79.39823,"115 Fort York Blvd (Fort York Blvd & Dan Leckie Way), Toronto ON M5V 0K2",Toronto,M5V 0K2
416,Print Store,43.653929,-79.401581,"205 Augusta Ave (Denison Square), Toronto ON M5T 2L4",Toronto,M5T 2L4
417,Wine Bar,43.653818,-79.401564,"199 Augusta Ave, Toronto ON M5T 2L4",Toronto,M5T 2L4
418,Gourmet Store,43.654065,-79.402024,"190 Augusta Ave (at Denison Sq.), Toronto ON M5T 2L6",Toronto,M5T 2L6
419,Arts and Entertainment,43.654218,-79.400693,"60 Kensington Ave (at St. Andrew), Toronto ON M5T 2K1",Toronto,M5T 2K1
420,Café,43.654517,-79.401208,"191 Baldwin St (Kensington Market), Toronto ON M5T 1M1",Toronto,M5T 1M1
421,Fish Market,43.654699,-79.401798,"206 Baldwin St, Toronto ON M5T 1L8",Toronto,M5T 1L8
422,Café,43.653507,-79.400439,"28 Kensington Ave, Toronto ON M5T 2J9",Toronto,M5T 2J9
423,Mexican Restaurant,43.654297,-79.400378,"69 Kensington Ave (Baldwin St), Toronto ON M5T 2K2",Toronto,M5T 2K2
424,Italian Restaurant,43.658319,-79.44226,"1281 Bloor St W (Lansdowne), Toronto ON M6H 1N7",Toronto,M6H 1N7
425,Dive Bar,43.65828,-79.44202,"1241 Bloor St W, Toronto ON M6H 1N6",Toronto,M6H 1N6
426,"Cafe, Coffee, and Tea House",43.658504,-79.441261,"1251 Bloor St W, Toronto ON M6H 1N6",Toronto,M6H 1N6
427,Café,43.659357,-79.444952,"50 Wade Ave (at Jenet Ave), Toronto ON M6H 2Z3",Toronto,M6H 2Z3
428,Fast Food Restaurant,43.658943,-79.44063,"1260 Bloor St W (at Emerson Ave.), Toronto ON M6H 1N5",Toronto,M6H 1N5
429,Ice Cream Parlor,43.658187,-79.442519,"159 Lansdowne Ave, Toronto ON M6H 1N7",Toronto,M6H 1N7
430,Caribbean Restaurant,43.658325,-79.442168,"1279 Bloor St W (at Lansdowne Ave), Toronto ON M6H 1N7",Toronto,M6H 1N7
431,Bakery,43.659049,-79.439946,"1242 Bloor St W (Margueretta), Toronto ON M6H 1N5",Toronto,M6H 1N5
432,Bar,43.658716,-79.439892,"1211 Bloor St W (Margueretta), Toronto ON M6H 1N4",Toronto,M6H 1N4
433,Pizzeria,43.658527,-79.44248,"1308 Bloor St W (at Lansdowne), Toronto ON M6H 1N9",Toronto,M6H 1N9
434,Brewery,43.653662,-79.4453,"128A Sterling Rd, Toronto ON M6R 2B7",Toronto,M6R 2B7
435,Art Gallery,43.654086,-79.442563,"172 Saint Helens Ave, Toronto ON M6H 4A1",Toronto,M6H 4A1
436,Art Museum,43.654452,-79.44524,"158 Sterling Rd (Perth Ave), Toronto ON M6R 2B7",Toronto,M6R 2B7
437,Italian Restaurant,43.658319,-79.44226,"1281 Bloor St W (Lansdowne), Toronto ON M6H 1N7",Toronto,M6H 1N7
438,"Cafe, Coffee, and Tea House",43.658504,-79.441261,"1251 Bloor St W, Toronto ON M6H 1N6",Toronto,M6H 1N6
439,Clothing Store,43.653871,-79.447811,"35 Goldene Way, Toronto ON M6R 2J5",Toronto,M6R 2J5
440,Fast Food Restaurant,43.658943,-79.44063,"1260 Bloor St W (at Emerson Ave.), Toronto ON M6H 1N5",Toronto,M6H 1N5
441,Flower Store,43.654298,-79.44428,"163 Sterling Rd (Bloor and Symington), Toronto ON M6R 2B2",Toronto,M6R 2B2
442,Dive Bar,43.65828,-79.44202,"1241 Bloor St W, Toronto ON M6H 1N6",Toronto,M6H 1N6
443,Drugstore,43.64969,-79.440501,"222 Lansdowne Ave (at Dundas St. W.), Toronto ON M6K 3C6",Toronto,M6K 3C6
444,Brewery,43.653662,-79.4453,"128A Sterling Rd, Toronto ON M6R 2B7",Toronto,M6R 2B7
445,Coffee Shop,43.647135,-79.443971,"250 Sorauren Ave (at Fermanagh Ave), Toronto ON M6R 2G2",Toronto,M6R 2G2
446,Home Improvement Service,43.650783,-79.444744,"393 Sorauren Ave (btwn Dundas St. W. & Columbus Ave.), Toronto ON M6R 2G5",Toronto,M6R 2G5
447,Dining and Drinking,43.651951,-79.44797,"2067 Dundas St W (Howard Park Avenue), Toronto ON M6R 1W8",Toronto,M6R 1W8
448,Café,43.646235,-79.443219,"221 Sorauren Ave (Wright Ave), Toronto ON M6R 2G1",Toronto,M6R 2G1
449,Bar,43.64979,-79.436824,"1665 Dundas St W (Margueretta St.), Toronto ON M6K 1V2",Toronto,M6K 1V2
450,Bicycle Store,43.649478,-79.444161,"345 Sorauren Ave (Dundas & Roncesvalles), Toronto ON M6R 2G5",Toronto,M6R 2G5
451,Clothing Store,43.653871,-79.447811,"35 Goldene Way, Toronto ON M6R 2J5",Toronto,M6R 2J5
452,Bar,43.64979,-79.436824,"1665 Dundas St W (Margueretta St.), Toronto ON M6K 1V2",Toronto,M6K 1V2
453,Bar,43.649733,-79.436067,"1631 Dundas St W (Brock Avenue), Toronto ON M6K 1V2",Toronto,M6K 1V2
454,Drugstore,43.64969,-79.440501,"222 Lansdowne Ave (at Dundas St. W.), Toronto ON M6K 3C6",Toronto,M6K 3C6
455,Café,43.649676,-79.43531,"1615 Dundas St W (Brock avenue), Toronto ON M6K 1T9",Toronto,M6K 1T9
456,"Cafe, Coffee, and Tea House",43.650717,-79.439497,"1269 College St, Toronto ON M6H 1C5",Toronto,M6H 1C5
457,French Restaurant,43.64997,-79.435123,"1600 Dundas St W (Brock Ave), Toronto ON M6K 1T8",Toronto,M6K 1T8
458,Bar,43.64992,-79.434274,"1574 Dundas St W (Dufferin), Toronto ON M6K 1T8",Toronto,M6K 1T8
459,Vietnamese Restaurant,43.652343,-79.434148,"1156 College St (at Sheridan Ave.), Toronto ON M6H 1B6",Toronto,M6H 1B6
460,Café,43.652415,-79.433926,"1150 College St (Dufferin), Toronto ON M6H 1B6",Toronto,M6H 1B6
461,Whisky Bar,43.654287,-79.423659,"856 College St (btwn Ossington Ave and Concord Ave), Toronto ON M6H 1A2",Toronto,M6H 1A2
462,Diner,43.654614,-79.423011,"450 Ossington Ave (at Ossington), Toronto ON M6G 3T2",Toronto,M6G 3T2
463,Restaurant,43.654702,-79.421809,"810 College St, Toronto ON M6G 1C8",Toronto,M6G 1C8
464,Cocktail Bar,43.654672,-79.420682,"797 College St, Toronto ON M6G 1C7",Toronto,M6G 1C7
465,Portuguese Restaurant,43.654181,-79.424344,"864 College St (at Ossington), Toronto ON M6H 1A3",Toronto,M6H 1A3
466,Arts and Entertainment,43.654874,-79.420995,"784 College St (College & Shaw), Toronto ON M6G 1C6",Toronto,M6G 1C6
467,Gift Store,43.654959,-79.420588,"776 College St (btw Shaw & Roxton), Toronto ON M6G 1C6",Toronto,M6G 1C6
468,Bookstore,43.649762,-79.431818,"1490 Dundas St W (Dovervourt Rd), Toronto ON M6K 1T5",Toronto,M6K 1T5
469,Café,43.654291,-79.462794,"1822 Bloor St W, Toronto ON M6P 3K6",Toronto,M6P 3K6
470,Retail,43.654126,-79.463515,"1840 Bloor St W, Toronto ON M6P 3K6",Toronto,M6P 3K6
471,Office Building,43.655426,-79.465688,"35 High Park Ave (Bloor st), Toronto ON M6P 2R6",Toronto,M6P 2R6
472,Park,43.653823,-79.466879,"10 Gotham Crt, Toronto ON M6M 2N8",Toronto,M6M 2N8
473,Grocery Store,43.653187,-79.467899,"1964 Bloor St W, Toronto ON M6P 3K9",Toronto,M6P 3K9
474,Pub,43.653035,-79.468436,"1982 Bloor St W, Toronto ON M6P 3K9",Toronto,M6P 3K9
475,Bar,43.654638,-79.459577,"1729 Bloor St W (at Parkside Dr.), Toronto ON M6P 1B2",Toronto,M6P 1B2
476,Park,43.658895,-79.462786,"155 Oakmount Rd (at Glenlake & Keele), Toronto ON M1P 4N7",Toronto,M1P 4N7
477,Deli,43.653148,-79.467659,"1960 Bloor St W (at Québec Ave), Toronto ON M6P 3K9",Toronto,M6P 3K9
478,Tennis Club,43.652474,-79.47073,"2100 Bloor St W, Toronto ON M6S 1M7",Toronto,M6S 1M7
479,Park,43.637747,-79.45644,"1755 Lake Shore Blvd W (at Colborne Lodge Dr.), Toronto ON M6S 5A3",Toronto,M6S 5A3
480,Office Building,43.636455,-79.46642,"1900 Lake Shore Blvd W (Ellis), Toronto ON M6S 1A4",Toronto,M6S 1A4
481,Bar,43.654638,-79.459577,"1729 Bloor St W (at Parkside Dr.), Toronto ON M6P 1B2",Toronto,M6P 1B2
482,Video Games Store,43.654638,-79.459577,"1727 Bloor St W, Toronto ON M6P 1B2",Toronto,M6P 1B2
483,Sushi Restaurant,43.655109,-79.459278,"1730 Bloor St W (Keele), Toronto ON M6P 1B3",Toronto,M6P 1B3
484,Deli,43.654659,-79.459299,"1717 Bloor St W, Toronto ON M6P 1B2",Toronto,M6P 1B2
485,Café,43.654291,-79.462794,"1822 Bloor St W, Toronto ON M6P 3K6",Toronto,M6P 3K6
486,Bar,43.65526,-79.45645,"1669 Bloor St W, Toronto ON M6P 1A6",Toronto,M6P 1A6
487,Pizzeria,43.654711,-79.459354,"1721 Bloor St W, Toronto ON M6P 1B2",Toronto,M6P 1B2
488,Bubble Tea Shop,43.654652,-79.459392,"1730 Bloor, Toronto ON M6P 1B2",Toronto,M6P 1B2
489,Thai Restaurant,43.655247,-79.456635,"1675 Bloor St W, Toronto ON M6P 1A6",Toronto,M6P 1A6
490,Office Building,43.636455,-79.46642,"1900 Lake Shore Blvd W (Ellis), Toronto ON M6S 1A4",Toronto,M6S 1A4
491,Park,43.637747,-79.45644,"1755 Lake Shore Blvd W (at Colborne Lodge Dr.), Toronto ON M6S 5A3",Toronto,M6S 5A3
492,Lounge,43.63163,-79.428773,"25 British Columbia Rd, Toronto ON M6K 3C3",Toronto,M6K 3C3
493,Dining and Drinking,43.632597,-79.425516,"10 Dufferin St (at British Columbia Dr.), Toronto ON M6K 3C3",Toronto,M6K 3C3
494,Office Building,43.632076,-79.42805,"30 British Columbia Rd, Toronto ON M6K 3C3",Toronto,M6K 3C3
495,Convenience Store,43.63357,-79.43142,"65 Dunn Ave (Dunn & Springhurst), Toronto ON M6K 2R5",Toronto,M6K 2R5
496,Diner,43.636534,-79.436942,"160 Springhurst Ave (S of King St W), Toronto ON M6K 1C2",Toronto,M6K 1C2
497,Residential Building,43.634459,-79.433852,"22 Close Ave (King Street), Toronto ON M6K 2V4",Toronto,M6K 2V4
498,Diner,43.638714,-79.445518,"1645 Queen St W (at Roncesvalles Ave), Toronto ON M6R 1A9",Toronto,M6R 1A9
499,Flea Market,43.63894,-79.443965,"1605 Queen St W, Toronto ON M6R 1A9",Toronto,M6R 1A9
500,Park,43.638339,-79.452188,"Lake Shore Blvd W, Toronto ON M8V 1H4",Toronto,M8V 1H4
501,Bakery,43.639132,-79.442874,"1537A Queen St W (Elm Grove Av), Toronto ON M6R 1A7",Toronto,M6R 1A7
502,Pizzeria,43.639444,-79.443205,"1648 Queen St W, Toronto ON M6R 1B2",Toronto,M6R 1B2
503,Thai Restaurant,43.639015,-79.445239,"1710 Queen St W, Toronto ON M6R 1B3",Toronto,M6R 1B3
504,Dining and Drinking,43.63965,-79.441929,"1610 Queen St W (Sorauren), Toronto ON M6R 1A8",Toronto,M6R 1A8
505,Burrito Restaurant,43.638916,-79.445831,"1736 Queen St W (Roncesvalles), Toronto ON M6R 1B3",Toronto,M6R 1B3
506,Clothing Store,43.639359,-79.443612,"1662 Queen St W (Triller Ave), Toronto ON M6R 1B2",Toronto,M6R 1B2
507,Art Gallery,43.653641,-79.450954,"2186 Dundas St W, Toronto ON M6R 1X3",Toronto,M6R 1X3
508,Diner,43.653725,-79.451341,"2202 Dundas St W, Toronto ON M6R 1X3",Toronto,M6R 1X3
509,Bar,43.652671,-79.449629,"2125 Dundas St W (Howard Park Ave), Toronto ON M6R 1X1",Toronto,M6R 1X1
510,Gourmet Store,43.653182,-79.451862,"476 Roncesvalles Ave (Dundas), Toronto ON M6R 2N5",Toronto,M6R 2N5
511,Movie Theater,43.651159,-79.451116,"400 Roncesvalles Ave (at Howard Park Ave), Toronto ON M6R 2M9",Toronto,M6R 2M9
512,Coffee Shop,43.653438,-79.451435,"2201 Dundas St W (at Roncesvalles Ave), Toronto ON M6R 1X5",Toronto,M6R 1X5
513,Diner,43.650937,-79.45108,"392 Roncesvalles Ave (Howard Park Ave), Toronto ON M6R 2M9",Toronto,M6R 2M9
514,Clothing Store,43.653871,-79.447811,"35 Goldene Way, Toronto ON M6R 2J5",Toronto,M6R 2J5
515,Pub,43.651753,-79.451445,"416 Roncesvalles Ave (Howard Park Ave), Toronto ON M6R 2N2",Toronto,M6R 2N2
516,Grocery Store,43.655294,-79.450611,"2290 Dundas St W (at Bloor St W), Toronto ON M6R 1X4",Toronto,M6R 1X4
517,Coffee Shop,43.710897,-79.398838,"2451 Yonge St (at Erskine Ave.), Toronto ON M4P 2E7",Toronto,M4P 2E7
518,Bakery,43.711491,-79.399167,"2471 Yonge St (Erskine), Toronto ON M4P 2H6",Toronto,M4P 2H6
519,Café,43.711877,-79.399275,"2489 Yonge St (Erksine Ave), Toronto ON M4P 2H6",Toronto,M4P 2H6
520,Italian Restaurant,43.711405,-79.399575,"2472 Yonge St (at Castlefield Ave), Toronto ON M4P 2H5",Toronto,M4P 2H5
521,Italian Restaurant,43.710165,-79.398862,"2405A Yonge St (btwn Broadway & Erskine Ave.), Toronto ON M4P 2E7",Toronto,M4P 2E7
522,Diner,43.711432,-79.399204,"2463 Yonge St (btwn Erskine & Castlefield), Toronto ON M4P 2H6",Toronto,M4P 2H6
523,Bakery,43.711713,-79.399202,"2481 Yonge St (Btwn Keewatin & Erskine), Toronto ON M4P 2H6",Toronto,M4P 2H6
524,Ramen Restaurant,43.711432,-79.399204,"2459 Yonge St, Toronto ON M4P 2H6",Toronto,M4P 2H6
525,Juice Bar,43.710329,-79.398934,"2409 Yonge St (Eglinton), Toronto ON M4P 2E7",Toronto,M4P 2E7
526,Wine Bar,43.7098,-79.398476,"2 Broadway Ave (at Eglinton Ave.), Toronto ON M4P 1T4",Toronto,M4P 1T4
527,Bar,43.654588,-79.391728,"136 McCaul St (at Dundas St.), Toronto ON M5T 1W2",Toronto,M5T 1W2
528,Café,43.654316,-79.390843,"281 Dundas St W (St Patrick And Dundas St W), Toronto ON M5T 1G1",Toronto,M5T 1G1
529,Art Gallery,43.653685,-79.392566,"317 Dundas St W (at Beverley St), Toronto ON M5T 1G4",Toronto,M5T 1G4
530,Sushi Restaurant,43.654343,-79.390474,"275 Dundas St W, Toronto ON M5T 3K1",Toronto,M5T 3K1
531,Fast Food Restaurant,43.653858,-79.390957,"109 McCaul St (at Dundas St. W), Toronto ON M5T 3K5",Toronto,M5T 3K5
532,Fast Food Restaurant,43.654736,-79.389695,"250 Dundas St W (Simcoe Street), Toronto ON M5T 2Z5",Toronto,M5T 2Z5
533,Arts and Crafts Store,43.652513,-79.39093,"74 McCaul St./1842 Queen St E./2868 Dundas St W (Dundas St.), Toronto ON M5T 3K2",Toronto,M5T 3K2
534,Art Gallery,43.65302,-79.39246,"317 Dundas St W (AGO), Toronto ON M5T 1G4",Toronto,M5T 1G4
535,Chinese Restaurant,43.653713,-79.395282,"418 Dundas St W (btwn Beverley & Huron St), Toronto ON M5T 1G7",Toronto,M5T 1G7
536,Flower Store,43.682786,-79.346543,"824 Pape Ave, Toronto ON M4K 3T5",Toronto,M4K 3T5
537,Bakery,43.682936,-79.346801,"830 Pape Ave, Toronto ON M4K 3T5",Toronto,M4K 3T5
538,Café,43.684621,-79.346787,"893 Pape Ave (at Sammon Ave), Toronto ON M4K 3V1",Toronto,M4K 3V1
539,High School,43.684395,-79.349137,"951 Carlaw Ave, Toronto ON M4K 3M2",Toronto,M4K 3M2
540,Bakery,43.688284,-79.348163,"1017 Pape Ave (Gowan), East York ON M4K 3V8",East York,M4K 3V8
541,Chinese Restaurant,43.684595,-79.347157,"862 Pape Ave (at Sammon Ave), Toronto ON M4K 3T8",Toronto,M4K 3T8
542,Greek Restaurant,43.683746,-79.346461,"873 Pape Ave (at Aldwych Ave), Toronto ON M4K 3T9",Toronto,M4K 3T9
543,Fast Food Restaurant,43.684302,-79.346549,"891 Pape Ave, Toronto ON M4K 3T9",Toronto,M4K 3T9
544,Veterinarian,43.687324,-79.348244,"966 Pape Ave (Mortimer), Toronto ON M4K 3V5",Toronto,M4K 3V5
545,Drugstore,43.688688,-79.348788,"1012 Pape Ave (Cosburn Ave), Toronto ON M4K 3V9",Toronto,M4K 3V9
546,Middle Eastern Restaurant,43.670652,-79.39008,"1250 Bay St, Toronto ON M5R 2B1",Toronto,M5R 2B1
547,Pizzeria,43.669992,-79.389881,"1200 Bay St, Toronto ON M5R 2A5",Toronto,M5R 2A5
548,Vegan and Vegetarian Restaurant,43.670196,-79.389399,"1221 Bay St, Toronto ON M5R 3P5",Toronto,M5R 3P5
549,Shopping Plaza,43.669694,-79.388571,"55 Bloor St W, Toronto ON M4W 1A5",Toronto,M4W 1A5
550,Italian Restaurant,43.671035,-79.390983,"75 Yorkville Ave (at Bellair St.), Toronto ON M5R 1B8",Toronto,M5R 1B8
551,Café,43.671134,-79.39039,"57 Yorkville Ave (at Bay St.), Toronto ON M5R 3V6",Toronto,M5R 3V6
552,Clothing Store,43.669397,-79.390347,"85 Bloor St W (Bellair St), Toronto ON M5S 1M1",Toronto,M5S 1M1
553,Clothing Store,43.669886,-79.390566,"82 Bloor St W (at Bay St), Toronto ON M5S 1L9",Toronto,M5S 1L9
554,Dining and Drinking,43.670371,-79.390082,"1240 Bay St, Toronto ON M5R 2A7",Toronto,M5R 2A7
555,Gelato Shop,43.668824,-79.38586,"6 Charles St E (Yonge), Toronto ON M4Y 1T2",Toronto,M4Y 1T2
556,Greek Restaurant,43.668525,-79.385345,"15 Charles St E, Toronto ON M4Y 1S1",Toronto,M4Y 1S1
557,Dining and Drinking,43.668609,-79.385732,"3 Charles St E (at Yonge), Toronto ON M4Y 1R9",Toronto,M4Y 1R9
558,Tobacco Store,43.668491,-79.385807,"665 Yonge St, Toronto ON M4Y 1Z9",Toronto,M4Y 1Z9
559,Diner,43.668996,-79.385046,"20 Charles St E (at Yonge St.), Toronto ON M4Y 1T1",Toronto,M4Y 1T1
560,Imported Food Store,43.669262,-79.386023,"703 Yonge St (Hayden St), Toronto ON M4Y 2B2",Toronto,M4Y 2B2
561,Mediterranean Restaurant,43.669327,-79.385893,"13 Hayden St (Yonge St.), Toronto ON M4Y 2P2",Toronto,M4Y 2P2
562,Afghan Restaurant,43.66904,-79.385988,"691 Yonge St (Hayden St), Toronto ON M4Y 2B2",Toronto,M4Y 2B2
563,Asian Restaurant,43.669326,-79.386688,"758 Yonge St, Toronto ON M4Y 2B6",Toronto,M4Y 2B6
564,Bubble Tea Shop,43.668824,-79.38586,"675 Yonge St (Charles St), Toronto ON M4Y 2B2",Toronto,M4Y 2B2
565,Brewery,43.640604,-79.403428,"28 Bathurst St, Toronto ON M5V 0R4",Toronto,M5V 0R4
566,Bar,43.641897,-79.406486,"167 Niagara St (at Wellington St W), Toronto ON M5V 1C9",Toronto,M5V 1C9
567,Grocery Store,43.641155,-79.402021,"28 Bathurst St (at Front St W), Toronto ON M5V 0R4",Toronto,M5V 0R4
568,Bagel Shop,43.642941,-79.406793,"787 King St W (at Niagara St), Toronto ON M5V 1N4",Toronto,M5V 1N4
569,French Restaurant,43.641897,-79.406486,"169 Niagara St (Wellington), Toronto ON M5V 1C9",Toronto,M5V 1C9
570,Clothing Store,43.64231,-79.402345,"62 Bathurst St (at Wellington), Toronto ON M5V 2P7",Toronto,M5V 2P7
571,Bagel Shop,43.64175,-79.401555,"33 Bathurst St, Toronto ON M5V 2P1",Toronto,M5V 2P1
572,Coffee Shop,43.643524,-79.405717,"766 King St W (Tecumseth), Toronto ON M5V 1N6",Toronto,M5V 1N6
573,American Restaurant,43.644131,-79.405861,"96 Tecumseth St (at Michener Ct), Toronto ON M6J 2H1",Toronto,M6J 2H1
574,Dining and Drinking,43.643294,-79.406569,"788 King St W, Toronto ON M5V 1N6",Toronto,M5V 1N6
575,Wine Bar,43.643777,-79.39683,"432 Wellington St W (at Spadina Ave), Toronto ON M5V 1E3",Toronto,M5V 1E3
576,Bar,43.644144,-79.396421,"420A Wellington St W (Spadina Ave), Toronto ON M5V 1E3",Toronto,M5V 1E3
577,Seafood Restaurant,43.645025,-79.396655,"469 King St W (btwn Spadina & Brant St.), Toronto ON M5V 1K4",Toronto,M5V 1K4
578,American Restaurant,43.644901,-79.396822,"485 King St W (Spadina Avenue), Toronto ON M5V 1K4",Toronto,M5V 1K4
579,Event Space,43.64483,-79.39625,"461 King St W, Toronto ON M5V 1K4",Toronto,M5V 1K4
580,American Restaurant,43.644485,-79.398672,"545 King St W, Toronto ON M5V 1M1",Toronto,M5V 1M1
581,Cocktail Bar,43.643546,-79.398476,"488 Wellington St W (at Portland St), Toronto ON M5V 1E3",Toronto,M5V 1E3
582,Tapas Restaurant,43.645482,-79.396541,"478 King St W (btwn Spadina Ave. & Brant St.), Toronto ON M5V 0A8",Toronto,M5V 0A8
583,Fast Food Restaurant,43.654736,-79.389695,"250 Dundas St W (Simcoe Street), Toronto ON M5T 2Z5",Toronto,M5T 2Z5
584,Café,43.654316,-79.390843,"281 Dundas St W (St Patrick And Dundas St W), Toronto ON M5T 1G1",Toronto,M5T 1G1
585,Sushi Restaurant,43.654343,-79.390474,"275 Dundas St W, Toronto ON M5T 3K1",Toronto,M5T 3K1
586,Fast Food Restaurant,43.653858,-79.390957,"109 McCaul St (at Dundas St. W), Toronto ON M5T 3K5",Toronto,M5T 3K5
587,Bar,43.654588,-79.391728,"136 McCaul St (at Dundas St.), Toronto ON M5T 1W2",Toronto,M5T 1W2
588,Arts and Crafts Store,43.652513,-79.39093,"74 McCaul St./1842 Queen St E./2868 Dundas St W (Dundas St.), Toronto ON M5T 3K2",Toronto,M5T 3K2
589,Art Gallery,43.653685,-79.392566,"317 Dundas St W (at Beverley St), Toronto ON M5T 1G4",Toronto,M5T 1G4
590,Ramen Restaurant,43.65503,-79.386422,"179 Dundas St W (btwn Centre Ave. & Chestnut St.), Toronto ON M5G 1C7",Toronto,M5G 1C7
591,Art Gallery,43.65302,-79.39246,"317 Dundas St W (AGO), Toronto ON M5T 1G4",Toronto,M5T 1G4
592,Bakery,43.66642,-79.40582,"370 Bloor St W (btwn Walmer & Dalton Rd), Toronto ON M5S 1X2",Toronto,M5S 1X2
593,Bookstore,43.665902,-79.406766,"471 Bloor St W (at Dalton Rd.), Toronto ON M5S 1X9",Toronto,M5S 1X9
594,Pizzeria,43.666176,-79.406857,"386 Bloor St W, Toronto ON M5S 1X4",Toronto,M5S 1X4
595,Café,43.665919,-79.408078,"408 Bloor St W, Toronto ON M5S 1X5",Toronto,M5S 1X5
596,Grocery Store,43.665632,-79.408173,"503 Bloor St W, Toronto ON M5S 1Y2",Toronto,M5S 1Y2
597,Thai Restaurant,43.665968,-79.406636,"467 Bloor St W (btwn Bathurst St. & Spadina Ave.), Toronto ON M5S 1X9",Toronto,M5S 1X9
598,Beer Bar,43.665421,-79.408747,"511 Bloor St W (Borden St.), Toronto ON M5S 1Y4",Toronto,M5S 1Y4
599,American Restaurant,43.646031,-79.389757,"8 Mercer St (John St), Toronto ON M5V 0C4",Toronto,M5V 0C4
600,Movie Theater,43.646604,-79.390363,"350 King St W (at John St.), Toronto ON M5V 3X5",Toronto,M5V 3X5
601,Theater,43.647025,-79.389214,"300 King St W (at John St.), Toronto ON M5V 1J2",Toronto,M5V 1J2
602,Taco Restaurant,43.647179,-79.390174,"106 John St (at King St W), Toronto ON M5V 2E1",Toronto,M5V 2E1
603,Mediterranean Restaurant,43.647449600777314,-79.38826382160187,"11 Duncan St (at Pearl St), Toronto ON M5V 3M2",Toronto,M5V 3M2
604,Bar,43.645715,-79.391016,"30 Mercer St (at John St), Toronto ON M5V 1H3",Toronto,M5V 1H3
605,Thai Restaurant,43.647796,-79.388636,"18 Duncan St (at Adelaide St W), Toronto ON M5H 3G8",Toronto,M5H 3G8
606,Theater,43.647308,-79.387623,"260 King St W (at Duncan St), Toronto ON M5V 1H9",Toronto,M5V 1H9
607,Italian Restaurant,43.645435,-79.387138,"181 Wellington St W (in the Ritz-Carlton), Toronto ON M5V 3G7",Toronto,M5V 3G7
608,Japanese Restaurant,43.645275,-79.392441,"80 Blue Jays Way, Toronto ON M5V 2G3",Toronto,M5V 2G3
609,Bookstore,43.671543,-79.293692,"2134 Queen St E, Toronto ON M4E 1E3",Toronto,M4E 1E3
610,Thai Restaurant,43.6713,-79.29473,"2120 Queen St E (Hammersmith Ave), Toronto ON M4E 1E2",Toronto,M4E 1E2
611,Sushi Restaurant,43.671221,-79.295045,"2116F Queen St E, Toronto ON M4E 1E2",Toronto,M4E 1E2
612,Cocktail Bar,43.671221,-79.295045,"2116 E Queen St E (Wineva Ave.), Toronto ON M4E 1E2",Toronto,M4E 1E2
613,Tea Room,43.671044,-79.295952,"2098 Queen St E (Wineva Ave), Toronto ON M4E 1E1",Toronto,M4E 1E1
614,Deli,43.670789,-79.295585,"2229 Queen St E (at Wineva Ave.), Toronto ON M4E 1E8",Toronto,M4E 1E8
615,Sports and Recreation,43.671359,-79.294692,"2245 Queen St E, Toronto ON M4E 1G1",Toronto,M4E 1G1
616,Butcher,43.671444,-79.294285,"2126 Queen St E, Toronto ON M4E 1E3",Toronto,M4E 1E3
617,Mattress Store,43.671183,-79.29401,"2261 Queen St E, Toronto ON M4E 1G3",Toronto,M4E 1G3
618,Ice Cream Parlor,43.667418,-79.312824,"1698 Queen St W, Scarborough ON M6R 1B3",Scarborough,M6R 1B3
619,Pub,43.667359,-79.312862,"1702 Queen St E (at Kingston Rd.), Toronto ON M4L 1G6",Toronto,M4L 1G6
620,Pizzeria,43.666794,-79.315251,"1646 Queen St E (at Eastern Ave,), Toronto ON M4L 1G3",Toronto,M4L 1G3
621,Liquor Store,43.666932,-79.314899,"1654 Queen St E (btwn Kingston Rd & Coxwell Ave), Toronto ON M4L 1G3",Toronto,M4L 1G3
622,Burger Joint,43.666774,-79.315529,"1636 Queen St E (btwn Coxwell Ave. & Kingston Rd.), Toronto ON M4L 1G3",Toronto,M4L 1G3
623,Park,43.662892,-79.312532,"Queen St (at Kingston Rd), Toronto ON M4L 1G7",Toronto,M4L 1G7
624,Movie Theater,43.66658,-79.314329,"1651 Queen St E (One Block East of Coxwell Ave. on Queen St. East), Toronto ON M4L 1G5",Toronto,M4L 1G5
625,Coffee Shop,43.668619,-79.307823,"1842 Queen St E (Brookmount Rd.), Toronto ON M4L 6T3",Toronto,M4L 6T3
626,Hotel,43.669843,-79.289216,"14 Balsam Ave (at Hubbard), Toronto ON M4E 3B4",Toronto,M4E 3B4
627,Club House,43.669989,-79.286387,"1 Beech Ave, Toronto ON M4E 1A7",Toronto,M4E 1A7
628,Bakery,43.672225,-79.290433,"2188 Queen St E (Balsam Ave), Toronto ON M4E 1E6",Toronto,M4E 1E6
629,Ice Cream Parlor,43.672737,-79.287988,"2224 Queen St E (btwn Spruce Hill & Beech), Toronto ON M4E 1E9",Toronto,M4E 1E9
630,Bistro,43.672004,-79.289603,"2343 Queen St E, Toronto ON M4E 1H2",Toronto,M4E 1H2
631,Indie Movie Theater,43.672901,-79.287265,"2236 Queen St E (at Beech Ave), Toronto ON M4E 1G2",Toronto,M4E 1G2
632,Diner,43.672055,-79.291248,"2162 Queen St E (Maclean Ave), Toronto ON M4E 1E4",Toronto,M4E 1E4
633,Mobile Company,43.672665,-79.28821,"2218 Queen St E (Spruce Hill Road), Toronto ON M4E 1E9",Toronto,M4E 1E9
634,Ice Cream Parlor,43.672737,-79.287988,"2224 Queen St E (btwn Spruce Hill & Beech), Toronto ON M4E 1E9",Toronto,M4E 1E9
635,Bistro,43.672004,-79.289603,"2343 Queen St E, Toronto ON M4E 1H2",Toronto,M4E 1H2
636,Bakery,43.672225,-79.290433,"2188 Queen St E (Balsam Ave), Toronto ON M4E 1E6",Toronto,M4E 1E6
637,Indie Movie Theater,43.672901,-79.287265,"2236 Queen St E (at Beech Ave), Toronto ON M4E 1G2",Toronto,M4E 1G2
638,Mexican Restaurant,43.672679,-79.288025,"2222A Queen St E, Toronto ON M4E 1H2",Toronto,M4E 1H2
639,Bistro,43.672593,-79.288433,"2214 Queen St E (Spruce Hill Road), Toronto ON M4E 1E9",Toronto,M4E 1E9
640,Caterer,43.672921,-79.286988,"2242 Queen St E (Beech Ave), Toronto ON M4E 1G2",Toronto,M4E 1G2
641,Bagel Shop,43.673,-79.286673,"2248 Queen St E, Toronto ON M4E 1G2",Toronto,M4E 1G2
642,Ramen Restaurant,43.672672,-79.288118,"2222 Queen St E (Beech), Toronto ON M4E 1E9",Toronto,M4E 1E9
643,Diner,43.672055,-79.291248,"2162 Queen St E (Maclean Ave), Toronto ON M4E 1E4",Toronto,M4E 1E4
644,Coffee Shop,43.637753,-79.392458,"10 Lower Spadina Ave (Queens Quay W), Toronto ON M5V 2Z2",Toronto,M5V 2Z2
645,Scenic Lookout,43.637702,-79.391608,"1 Spadina Cres (at Queens Quay W), Toronto ON M5S 2J5",Toronto,M5S 2J5
646,Café,43.637595,-79.393087,"466 Queens Quay W (Spadina), Toronto ON M5V 2Y3",Toronto,M5V 2Y3
647,Coffee Shop,43.640219,-79.393271,"2E Spadina Ave (Spadina & Fort York), Toronto ON M5V 3Y5",Toronto,M5V 3Y5
648,Park,43.637636,-79.388654,"339 Queens Quay W (at Rees St.), Toronto ON M5V 1A2",Toronto,M5V 1A2
649,Stadium,43.641044,-79.388869,Toronto ON M5V 1J1,Toronto,M5V 1J1
650,Café,43.64005,-79.396376,"66 Fort York Blvd (Fort York & Spadina), Toronto ON M5V 4A6",Toronto,M5V 4A6
651,Pizzeria,43.639194,-79.386518,"3 Rees St (Queens Quay), Toronto ON M5V 3J2",Toronto,M5V 3J2
652,Bubble Tea Shop,43.640057,-79.396283,"62 Fort York Blvd, Toronto ON M5V 4A6",Toronto,M5V 4A6
653,Park,43.662892,-79.312532,"Queen St (at Kingston Rd), Toronto ON M4L 1G7",Toronto,M4L 1G7
654,Brewery,43.663372,-79.319902,"1001 Eastern Ave (Woodfield Rd), Toronto ON M4L 1A8",Toronto,M4L 1A8
655,Pizzeria,43.666794,-79.315251,"1646 Queen St E (at Eastern Ave,), Toronto ON M4L 1G3",Toronto,M4L 1G3
656,Bicycle Store,43.666157,-79.317863,"1592 Queen St E, Toronto ON M4L 1G1",Toronto,M4L 1G1
657,Burger Joint,43.666774,-79.315529,"1636 Queen St E (btwn Coxwell Ave. & Kingston Rd.), Toronto ON M4L 1G3",Toronto,M4L 1G3
658,Gift Store,43.667353,-79.361214,"201 Winchester St (at Sumach St), Toronto ON M4X 1B8",Toronto,M4X 1B8
659,Restaurant,43.666925,-79.363251,"161 Winchester St (at Sumach St), Toronto ON M4X 1B5",Toronto,M4X 1B5
660,Park,43.665851,-79.361023,"500 Gerrard St (at River St.), Toronto ON M5A 2H3",Toronto,M5A 2H3
661,Pizzeria,43.667484,-79.368718,"12 Amelia St (Parliament St), Toronto ON M4X 1E1",Toronto,M4X 1E1
662,BBQ Joint,43.667842,-79.369195,"601 Parliament St (at Wellesley St. E), Toronto ON M4X 1P9",Toronto,M4X 1P9
663,Arts and Entertainment,43.66637,-79.367044,"80 Winchester St (at Metcalfe St), Toronto ON M4X 1B2",Toronto,M4X 1B2
664,Indian Restaurant,43.666889,-79.369184,"556 Parliament St (at Prospect St.), Toronto ON M4X 1P6",Toronto,M4X 1P6
665,Bakery,43.667516,-79.36905,"589A Parliament St (Amelia St.), Toronto ON M4X 1P9",Toronto,M4X 1P9
666,Jewelry Store,43.665388,-79.368198,"523 Parliament St (Just north of Carlton St.), Toronto ON M4X 1P3",Toronto,M4X 1P3
667,Butcher,43.665688,-79.368713,"516 Parliament St (Winchester), Toronto ON M4X 1P4",Toronto,M4X 1P4
668,Cocktail Bar,43.652854,-79.400148,"2A Kensington Ave (at Dundas Ave W), Toronto ON M5T 2J7",Toronto,M5T 2J7
669,Wine Bar,43.653818,-79.401564,"199 Augusta Ave, Toronto ON M5T 2L4",Toronto,M5T 2L4
670,Café,43.653507,-79.400439,"28 Kensington Ave, Toronto ON M5T 2J9",Toronto,M5T 2J9
671,Print Store,43.653929,-79.401581,"205 Augusta Ave (Denison Square), Toronto ON M5T 2L4",Toronto,M5T 2L4
672,Asian Restaurant,43.651946,-79.403369,"666 Dundas St W (Bathurst St.), Toronto ON M5T 1H9",Toronto,M5T 1H9
673,Organic Grocery,43.654055,-79.40062,"50 Kensington Ave (St. Andrew St.), Toronto ON M5T 2K1",Toronto,M5T 2K1
674,Arts and Entertainment,43.654218,-79.400693,"60 Kensington Ave (at St. Andrew), Toronto ON M5T 2K1",Toronto,M5T 2K1
675,Café,43.654265,-79.400045,"30 Saint Andrew St (at Spadina Ave), Toronto ON M5T 1K6",Toronto,M5T 1K6
676,Farmers Market,43.654193,-79.400268,"34 Saint Andrew St (at Kensington ave.), Toronto ON M5T 1K6",Toronto,M5T 1K6
677,Mexican Restaurant,43.654297,-79.400378,"69 Kensington Ave (Baldwin St), Toronto ON M5T 2K2",Toronto,M5T 2K2
678,Café,43.644141,-79.419605,"1024 Queen St W (Ossington), Toronto ON M6J 1H6",Toronto,M6J 1H6
679,Lounge,43.644087,-79.420344,"1034 Queen St W, Toronto ON M6J 1H7",Toronto,M6J 1H7
680,Bar,43.644593,-79.418789,"15 Ossington Ave (at Queen St W), Toronto ON M6J 2Y8",Toronto,M6J 2Y8
681,Bakery,43.644054,-79.420806,"1056 Queen St W, Toronto ON M6J 1H7",Toronto,M6J 1H7
682,Bakery,43.644392,-79.418476,"994 Queen St W (at Ossington Ave.), Toronto ON M6J 1H1",Toronto,M6J 1H1
683,Men's Store,43.645416,-79.419061,"41 Ossington Ave (at Rebecca St), Toronto ON M6J 2Y9",Toronto,M6J 2Y9
684,Art Gallery,43.64443,-79.418716,"9 Ossington Ave, Toronto ON M6J 2Y8",Toronto,M6J 2Y8
685,Café,43.643699,-79.421825,"1078 Queen St W (at Dovercourt Rd), Toronto ON M6J 1H8",Toronto,M6J 1H8
686,Bar,43.643843,-79.42138,"1070 Queen St E (Dovercourt), Toronto ON M4M 3M4",Toronto,M4M 3M4
687,Retail,43.64455,-79.417847,"972 Queen St W (Givins St.), Toronto ON M6J 1H1",Toronto,M6J 1H1
688,Bakery,43.650533,-79.359387,"55 Mill St (in Distillery District), Toronto ON M5A 3C4",Toronto,M5A 3C4
689,Distillery,43.650429,-79.359767,"12 Trinity St, Toronto ON M5A 3C4",Toronto,M5A 3C4
690,Dessert Shop,43.650158,-79.360683,"28 Gristmill Lane, Toronto ON M5A 3C4",Toronto,M5A 3C4
691,Café,43.649889,-79.361295,"17 Gristmill Lane (at Parliament St), Toronto ON M5A 3C4",Toronto,M5A 3C4
692,Cajun and Creole Restaurant,43.650768,-79.359237,"18 Tank House Lane (Distillery District), Toronto ON M5A 3C4",Toronto,M5A 3C4
693,Farmers Market,43.650075,-79.361832,"1 Trinity St, Toronto ON M5A 3C4",Toronto,M5A 3C4
694,Restaurant,43.650678,-79.358148,"32 Tank House Lane (The Distillery District), Toronto ON M5A 3C4",Toronto,M5A 3C4
695,Café,43.64988,-79.359096,"55 Mill St (at Distillery Ln.), Toronto ON M5A 3C4",Toronto,M5A 3C4
696,Café,43.650448,-79.359,"11 Tank House Lane, Toronto ON M5A 3C4",Toronto,M5A 3C4
697,Clothing Store,43.655771,-79.380836,"220 Yonge St (at Dundas St W), Toronto ON M5B 2H1",Toronto,M5B 2H1
698,New American Restaurant,43.655861,-79.381926,"1 Dundas St W, Toronto ON M5G 1Z3",Toronto,M5G 1Z3
699,Plaza,43.65602,-79.380502,"40 Dundas St W (at Yonge St), Toronto ON M5G 2C2",Toronto,M5G 2C2
700,Bookstore,43.657051,-79.380993,"329 Yonge St (at Dundas St E), Toronto ON M5B 1R7",Toronto,M5B 1R7
701,Fast Food Restaurant,43.656829,-79.380958,"323 Yonge St (Yonge & Dundas), Toronto ON M5B 1R7",Toronto,M5B 1R7
702,Movie Theater,43.656582,-79.380498,"10 Dundas St E (at Yonge St), Toronto ON M5B 2G9",Toronto,M5B 2G9
703,Pizzeria,43.656609,-79.380128,"10 Dundas St E, Toronto ON M5B 2G9",Toronto,M5B 2G9
704,Restaurant,43.65711,-79.380956,"329 Yonge St, Toronto ON M5B 1R7",Toronto,M5B 1R7
705,Bookstore,43.65705,-79.381788,"10 Edward St (at Yonge St), Toronto ON M5G 1C9",Toronto,M5G 1C9
706,Pub,43.667895,-79.403296,"14 Madison Ave (at Bloor St. W), Toronto ON M5R 2S1",Toronto,M5R 2S1
707,Bakery,43.66642,-79.40582,"370 Bloor St W (btwn Walmer & Dalton Rd), Toronto ON M5S 1X2",Toronto,M5S 1X2
708,Bookstore,43.665902,-79.406766,"471 Bloor St W (at Dalton Rd.), Toronto ON M5S 1X9",Toronto,M5S 1X9
709,Café,43.67529,-79.405833,"238 Dupont St (Spadina Ave), Toronto ON M5R 1V7",Toronto,M5R 1V7
710,Café,43.665919,-79.408078,"408 Bloor St W, Toronto ON M5S 1X5",Toronto,M5S 1X5
711,Pizzeria,43.666176,-79.406857,"386 Bloor St W, Toronto ON M5S 1X4",Toronto,M5S 1X4
712,South Indian Restaurant,43.674776,-79.408277,"308 Dupont St (at Walmer Rd.), Toronto ON M5R 1V9",Toronto,M5R 1V9
713,Japanese Restaurant,43.666966,-79.400623,"335 Bloor St W, Toronto ON M5S 1W7",Toronto,M5S 1W7
714,Hospital,43.677608,-79.415653,"47 Austin Terr, Toronto ON M5R 1Y8",Toronto,M5R 1Y8
715,Dessert Shop,43.679793,-79.417265,"1360 Bathurst St, Toronto ON M5R 3H7",Toronto,M5R 3H7
716,Medical Center,43.67782,-79.41568,"47 Austin Terr (Bathurst St.), Toronto ON M5R 1Y8",Toronto,M5R 1Y8
717,Office Building,43.676048,-79.417789,"1138 Bathurst St (at Davenport Rd.), Toronto ON M5R 3H2",Toronto,M5R 3H2
718,Deli,43.673854,-79.411685,"414 Dupont St, Toronto ON M5R 1V9",Toronto,M5R 1V9
719,African Restaurant,43.673854,-79.411685,"414 Dupont St (Howland Ave), Toronto ON M5R 1V9",Toronto,M5R 1V9
720,Gastropub,43.673501,-79.411909,"268 Howland Ave (at Dupont St), Toronto ON M5R 3B6",Toronto,M5R 3B6
721,Museum,43.679349,-79.411019,"328 Walmer Rd, Toronto ON M5R 2Y4",Toronto,M5R 2Y4
722,Asian Restaurant,43.640421,-79.435976,"216C Close Ave, Toronto ON M6K 2V5",Toronto,M6K 2V5
723,Indian Restaurant,43.640793,-79.43627,"1456 Queen St W (at Lansdowne), Toronto ON M6K 1M2",Toronto,M6K 1M2
724,Diner,43.64105,-79.435049,"1426 Queen St W, Toronto ON M6K 1L9",Toronto,M6K 1L9
725,Diner,43.640872,-79.435955,"1446 Queen St W, Toronto ON M6K 1M2",Toronto,M6K 1M2
726,Vintage and Thrift Store,43.641129,-79.434735,"1414 Queen St W, Toronto ON M6K 1L9",Toronto,M6K 1L9
727,Café,43.640855,-79.434644,"1349 Queen St W (at Dunn Ave), Toronto ON M6K 1M1",Toronto,M6K 1M1
728,Liquor Store,43.640783,-79.434866,"1357 Queen St W (Lansdowne Avenue), Toronto ON M6K 1M1",Toronto,M6K 1M1
729,Furniture and Home Store,43.639848,-79.423826,"1112 King St W (Joe Shuster Way), Toronto ON M6K 1E6",Toronto,M6K 1E6
730,Stadium,43.638877,-79.423296,"1151 King St W (Liberty Village), Toronto ON M6K 1E9",Toronto,M6K 1E9
731,Café,43.639159,-79.425585,"1187 King St W, Toronto ON M6K 3C5",Toronto,M6K 3C5
732,Grocery Store,43.640027,-79.42292,"1100 King St W, Toronto ON M6K 0C6",Toronto,M6K 0C6
733,Dining and Drinking,43.639865,-79.422053,"139G Jefferson Ave (at King St.), Toronto ON M6K 3E4",Toronto,M6K 3E4
734,Italian Restaurant,43.639224,-79.425455,"1185 King St W (at Fraser Ave), Toronto ON M6K 3C5",Toronto,M6K 3C5
735,Bakery,43.637396,-79.422826,"8 Pardee Ave (Liberty St), Toronto ON M6K 3H5",Toronto,M6K 3H5
736,Furniture and Home Store,43.639921,-79.420519,"109 Atlantic Ave (at King St. W), Toronto ON M6K 1X4",Toronto,M6K 1X4
737,Department Store,43.640097,-79.423492,"5 Joe Shuster Way, Toronto ON M6K 0C7",Toronto,M6K 0C7
738,Pet Supplies Store,43.639255,-79.426582,"1176 King St W (at Dufferin St), Toronto ON M6K 1E6",Toronto,M6K 1E6
739,Grocery Store,43.668694,-79.420868,"200 Christie St (at Essex St), Toronto ON M6G 3B6",Toronto,M6G 3B6
740,Café,43.671917,-79.422086,"672 Dupont St (Christie), Toronto ON M6G 1Z6",Toronto,M6G 1Z6
741,Candy Store,43.671534,-79.421183,"653 Dupont St (""at Christie St.""), Toronto ON M6G 1Z4",Toronto,M6G 1Z4
742,Grocery Store,43.671527,-79.421275,"650 Dupont St (at Christie St.), Toronto ON M6G 4B1",Toronto,M6G 4B1
743,Antique Store,43.6716,-79.421053,"647 Dupont St, Toronto ON M6G 1Z4",Toronto,M6G 1Z4
744,Framing Store,43.671383,-79.42172,"665 Dupont St, Toronto ON M6G 1Z5",Toronto,M6G 1Z5
745,Furniture and Home Store,43.671983,-79.418869,"585 Dupont St, Toronto ON M6G 1Y8",Toronto,M6G 1Y8
746,Organic Grocery,43.668236,-79.414809,"739 Palmerston Ave (btwn Barton Ave. And Follis Ave.), Toronto ON M6G 2R3",Toronto,M6G 2R3
747,American Restaurant,43.67172,-79.414009,"1048 Bathurst St (Dupont), Toronto ON M5R 3G7",Toronto,M5R 3G7
748,Pizzeria,43.669429,-79.413082,"964 Bathurst St, Toronto ON M5R 3G5",Toronto,M5R 3G5
749,Bar,43.669631,-79.413395,"2 Follis Ave, Toronto ON M6G 1S3",Toronto,M6G 1S3
750,Skating Rink,43.671195,-79.415048,"40 Rossmore Rd (btwn Olive Ave and Vermont St), Toronto ON M6G 2M7",Toronto,M6G 2M7
751,Café,43.671917,-79.422086,"672 Dupont St (Christie), Toronto ON M6G 1Z6",Toronto,M6G 1Z6
752,Diner,43.669703,-79.413173,"968 Bathurst St (Follis Ave), Toronto ON M5R 3G6",Toronto,M5R 3G6
753,Grocery Store,43.668694,-79.420868,"200 Christie St (at Essex St), Toronto ON M6G 3B6",Toronto,M6G 3B6
754,Farmers Market,43.679994,-79.423753,"601 Christie St (St Clair Avenue West), Toronto ON M6G 4C7",Toronto,M6G 4C7
755,Bakery,43.681406,-79.425944,"693 Saint Clair Ave W (Christie), Toronto ON M6C 1B2",Toronto,M6C 1B2
756,Café,43.68163,-79.425185,"671 Saint Clair Ave W (at Christie St.), Toronto ON M6C 1A7",Toronto,M6C 1A7
757,BBQ Joint,43.681565,-79.425314,"679 Saint Clair Ave W (at Christie St), Toronto ON M6C 1A7",Toronto,M6C 1A7
758,Persian Restaurant,43.68195,-79.425423,"672A St Clair Ave W (Christie & St. Clair W), Toronto ON M6C 1B1",Toronto,M6C 1B1
759,Ice Cream Parlor,43.681566,-79.427607,"283 Rushton Rd, Toronto ON M6C 2X6",Toronto,M6C 2X6
760,Pizzeria,43.680937,-79.428535,"769 Saint Clair Ave W (at Arlington Ave.), Toronto ON M6C 1B4",Toronto,M6C 1B4
761,Indian Restaurant,43.68112163005123,-79.42925333976746,"778 St Clair Ave W (at Arlington Ave), Toronto ON M6C 1B6",Toronto,M6C 1B6
762,Convenience Store,43.67981,-79.423957,"601 Christie St, Toronto ON M6G 4C7",Toronto,M6G 4C7
763,Café,43.639159,-79.425585,"1187 King St W, Toronto ON M6K 3C5",Toronto,M6K 3C5
764,Italian Restaurant,43.639224,-79.425455,"1185 King St W (at Fraser Ave), Toronto ON M6K 3C5",Toronto,M6K 3C5
765,Pet Supplies Store,43.639255,-79.426582,"1176 King St W (at Dufferin St), Toronto ON M6K 1E6",Toronto,M6K 1E6
766,Furniture and Home Store,43.639848,-79.423826,"1112 King St W (Joe Shuster Way), Toronto ON M6K 1E6",Toronto,M6K 1E6
767,Stadium,43.638877,-79.423296,"1151 King St W (Liberty Village), Toronto ON M6K 1E9",Toronto,M6K 1E9
768,Dining and Drinking,43.63779,-79.424338,"70 Fraser Ave (at Liberty St.), Toronto ON M6K 3E1",Toronto,M6K 3E1
769,Bakery,43.637396,-79.422826,"8 Pardee Ave (Liberty St), Toronto ON M6K 3H5",Toronto,M6K 3H5
770,Grocery Store,43.640027,-79.42292,"1100 King St W, Toronto ON M6K 0C6",Toronto,M6K 0C6
771,Dining and Drinking,43.639865,-79.422053,"139G Jefferson Ave (at King St.), Toronto ON M6K 3E4",Toronto,M6K 3E4
772,Department Store,43.640097,-79.423492,"5 Joe Shuster Way, Toronto ON M6K 0C7",Toronto,M6K 0C7
773,Café,43.67529,-79.405833,"238 Dupont St (Spadina Ave), Toronto ON M5R 1V7",Toronto,M5R 1V7
774,Middle Eastern Restaurant,43.675132,-79.406463,"252 Dupont St, Toronto ON M5R 1V7",Toronto,M5R 1V7
775,South Indian Restaurant,43.674776,-79.408277,"308 Dupont St (at Walmer Rd.), Toronto ON M5R 1V9",Toronto,M5R 1V9
776,Donut Shop,43.674881,-79.407592,"284 Dupont St (Dupont & Spadina), Toronto ON M5R 1V9",Toronto,M5R 1V9
777,Sandwich Spot,43.67504,-79.406963,"268 Dupont St (at Spadina Ave), Toronto ON M5R 1V7",Toronto,M5R 1V7
778,Historic and Protected Site,43.677709,-79.408091,"Davenport Rd (at Spadina Rd.), Toronto ON M5R 1X8",Toronto,M5R 1X8
779,Drugstore,43.674907,-79.408017,"292 Dupont St (Spadina), Toronto ON M5R 1V9",Toronto,M5R 1V9
780,Mediterranean Restaurant,43.677547,-79.407223,"501 Davenport Rd (Madison Street), Toronto ON M4V 1B8",Toronto,M4V 1B8
781,Structure,43.678,-79.409494,"1 Austin Terr (at Walmer Rd), Toronto ON M5R 1X8",Toronto,M5R 1X8
782,Café,43.674195,-79.41085,"390 Dupont St, Toronto ON M5R 1V9",Toronto,M5R 1V9
783,Culinary School,43.674143,-79.410795,"390 Dupont St, Toronto ON M5R 1V9",Toronto,M5R 1V9
784,South Indian Restaurant,43.674776,-79.408277,"308 Dupont St (at Walmer Rd.), Toronto ON M5R 1V9",Toronto,M5R 1V9
785,Deli,43.675653,-79.410101,"160 Kendal Ave (at Bridgman Ave (GBC Casloma Campus)), Toronto ON M5R 1M3",Toronto,M5R 1M3
786,Deli,43.673854,-79.411685,"414 Dupont St, Toronto ON M5R 1V9",Toronto,M5R 1V9
787,Structure,43.678,-79.409494,"1 Austin Terr (at Walmer Rd), Toronto ON M5R 1X8",Toronto,M5R 1X8
788,African Restaurant,43.673854,-79.411685,"414 Dupont St (Howland Ave), Toronto ON M5R 1V9",Toronto,M5R 1V9
789,Gastropub,43.673501,-79.411909,"268 Howland Ave (at Dupont St), Toronto ON M5R 3B6",Toronto,M5R 3B6
790,Deli,43.673854,-79.411685,"414 Dupont St, Toronto ON M5R 1V9",Toronto,M5R 1V9
791,Gastropub,43.673501,-79.411909,"268 Howland Ave (at Dupont St), Toronto ON M5R 3B6",Toronto,M5R 3B6
792,African Restaurant,43.673854,-79.411685,"414 Dupont St (Howland Ave), Toronto ON M5R 1V9",Toronto,M5R 1V9
793,"Cafe, Coffee, and Tea House",43.673351,-79.414738,"1110 Bathurst St (Dupont St), Toronto ON M5R 3H2",Toronto,M5R 3H2
794,Café,43.674195,-79.41085,"390 Dupont St, Toronto ON M5R 1V9",Toronto,M5R 1V9
795,Culinary School,43.674143,-79.410795,"390 Dupont St, Toronto ON M5R 1V9",Toronto,M5R 1V9
796,American Restaurant,43.67172,-79.414009,"1048 Bathurst St (Dupont), Toronto ON M5R 3G7",Toronto,M5R 3G7
797,South Indian Restaurant,43.674776,-79.408277,"308 Dupont St (at Walmer Rd.), Toronto ON M5R 1V9",Toronto,M5R 1V9
798,Café,43.674195,-79.41085,"390 Dupont St, Toronto ON M5R 1V9",Toronto,M5R 1V9
799,Culinary School,43.674143,-79.410795,"390 Dupont St, Toronto ON M5R 1V9",Toronto,M5R 1V9
800,Deli,43.673854,-79.411685,"414 Dupont St, Toronto ON M5R 1V9",Toronto,M5R 1V9
801,African Restaurant,43.673854,-79.411685,"414 Dupont St (Howland Ave), Toronto ON M5R 1V9",Toronto,M5R 1V9
802,Gastropub,43.673501,-79.411909,"268 Howland Ave (at Dupont St), Toronto ON M5R 3B6",Toronto,M5R 3B6
803,Café,43.67529,-79.405833,"238 Dupont St (Spadina Ave), Toronto ON M5R 1V7",Toronto,M5R 1V7
804,Donut Shop,43.674881,-79.407592,"284 Dupont St (Dupont & Spadina), Toronto ON M5R 1V9",Toronto,M5R 1V9
805,Pizzeria,43.669429,-79.413082,"964 Bathurst St, Toronto ON M5R 3G5",Toronto,M5R 3G5
806,Hair Salon,43.678521,-79.358169,"817 Broadview Ave (at Pretoria Ave), Toronto ON M4K 2P9",Toronto,M4K 2P9
807,Healthcare Clinic,43.677894,-79.358304,"807 Broadview Ave (btwn Pretoria & Erindale), Toronto ON M4K 2P8",Toronto,M4K 2P8
808,Ramen Restaurant,43.677174,-79.358938,"786 Broadview Ave, Toronto ON M4K 2P7",Toronto,M4K 2P7
809,Mexican Restaurant,43.677168,-79.35903,"788 Broadview Ave (Danforth), Toronto ON M4K 2P7",Toronto,M4K 2P7
810,Concert Hall,43.676479,-79.35691,"147 Danforth Ave (at Broadview Ave.), Toronto ON M4K 1N2",Toronto,M4K 1N2
811,Cocktail Bar,43.676433,-79.356762,"161 Danforth Ave, Toronto ON M4K 1N2",Toronto,M4K 1N2
812,Bakery,43.67644,-79.35667,"173 Danforth Ave (Broadview), Toronto ON M4K 1N2",Toronto,M4K 1N2
813,Grocery Store,43.676677,-79.355725,"213 Danforth Ave, Toronto ON M4K 1N2",Toronto,M4K 1N2
814,Pub,43.676163,-79.358169,"107 Danforth Ave, Toronto ON M4K 1N2",Toronto,M4K 1N2
815,Grocery Store,43.685057,-79.356306,"1015 Broadview Ave, East York ON M4K 2S1",East York,M4K 2S1
816,Wine Store,43.684429,-79.35644,"1015 Broadview Ave (Broadview & Mortimer), Toronto ON M4K 2S1",Toronto,M4K 2S1
817,Discount Store,43.686259,-79.355982,"1099 Broadview Ave, East York ON M4K 2S4",East York,M4K 2S4
818,Monument,43.686115,-79.36031,"67 Pottery Rd, Toronto ON M4K 2B9",Toronto,M4K 2B9
819,Dentist,43.683789,-79.35676,"985 Broadview Ave (Mortimer Ave), Toronto ON M4K 2R9",Toronto,M4K 2R9
820,Spiritual Center,43.684052,-79.355445,"19 Mortimer Ave (Jackman Ave.), Toronto ON M4K 1Z9",Toronto,M4K 1Z9
821,Pizzeria,43.689443,-79.354662,"1201 Broadview Ave (at Gamble Ave.), Toronto ON M4K 2T1",Toronto,M4K 2T1
822,Flower Store,43.682786,-79.346543,"824 Pape Ave, Toronto ON M4K 3T5",Toronto,M4K 3T5
823,Bakery,43.682936,-79.346801,"830 Pape Ave, Toronto ON M4K 3T5",Toronto,M4K 3T5
824,Café,43.684621,-79.346787,"893 Pape Ave (at Sammon Ave), Toronto ON M4K 3V1",Toronto,M4K 3V1
825,Greek Restaurant,43.683746,-79.346461,"873 Pape Ave (at Aldwych Ave), Toronto ON M4K 3T9",Toronto,M4K 3T9
826,Fast Food Restaurant,43.684302,-79.346549,"891 Pape Ave, Toronto ON M4K 3T9",Toronto,M4K 3T9
827,Chinese Restaurant,43.684595,-79.347157,"862 Pape Ave (at Sammon Ave), Toronto ON M4K 3T8",Toronto,M4K 3T8
828,High School,43.684395,-79.349137,"951 Carlaw Ave, Toronto ON M4K 3M2",Toronto,M4K 3M2
829,Tobacco Store,43.682382,-79.345918,"Pape Ave (Canning Avenue), Toronto ON M4K 1P7",Toronto,M4K 1P7
830,Bakery,43.688284,-79.348163,"1017 Pape Ave (Gowan), East York ON M4K 3V8",East York,M4K 3V8
831,Pizzeria,43.67861,-79.347612,"550 Danforth Ave (at Carlaw Ave), Toronto ON M4K 1P8",Toronto,M4K 1P8
832,Grocery Store,43.693284,-79.342685,"350 Donlands Ave, Toronto ON M4J 3S1",Toronto,M4J 3S1
833,Elementary School,43.689328,-79.340702,"299A Donlands Ave (Cosburn Ave), East York ON M4J 3R7",East York,M4J 3R7
834,Organization,43.6909,-79.342261,"249 Cosburn Ave, Toronto ON M4J 2M2",Toronto,M4J 2M2
835,Convenience Store,43.689217,-79.340684,"250 Donlands Ave (at Memorial Park Ave), Toronto ON M4J 3R4",Toronto,M4J 3R4
836,Bakery,43.694185,-79.342641,"405 Donlands Ave (at O'Connor Dr), Toronto ON M4J 3S2",Toronto,M4J 3S2
837,Cheese Store,43.693526,-79.342443,"381 Donlands Ave, Toronto ON M4J 3S2",Toronto,M4J 3S2
838,Gym and Studio,43.694081,-79.34253,"401 Donlands Ave, Toronto ON M4J 3S2",Toronto,M4J 3S2
839,Church,43.692376,-79.338143,"1108 Greenwood Ave (Cosburn), Toronto ON M4J 4E6",Toronto,M4J 4E6
840,Skating Rink,43.704219,-79.420379,"340 Chaplin Cres, Toronto ON M5N 2N3",Toronto,M5N 2N3
841,High School,43.702963,-79.421441,"730 Eglinton Ave W, Toronto ON M5N 1B9",Toronto,M5N 1B9
842,Skating Rink,43.702246,-79.423573,"340 Chaplin Cres, Toronto ON M5N 2N3",Toronto,M5N 2N3
843,Bagel Shop,43.700467,-79.427173,"895 Eglinton Ave W (at Peverhill Hill. N), Toronto ON M6C 2C1",Toronto,M6C 2C1
844,Tennis,43.702588,-79.419649,"666 Eglinton Ave W (Bathurst / Eglinton), Toronto ON M5N 1B9",Toronto,M5N 1B9
845,Library,43.702344,-79.420687,"700 Eglinton Ave W (Vesta Dr.), Toronto ON M5N 1B9",Toronto,M5N 1B9
846,Grocery Store,43.657911,-79.330261,"1005 Lake Shore Blvd E, Toronto ON M4M 1B4",Toronto,M4M 1B4
847,Grocery Store,43.65927,-79.330102,"731 Eastern Ave (at Leslie St.), Toronto ON M4M 3H6",Toronto,M4M 3H6
848,Electronics Store,43.658019,-79.327987,"1015 Lake Shore Blvd E (Leslie), Toronto ON M4M 1B4",Toronto,M4M 1B4
849,Brewery,43.661871,-79.329063,"818 Eastern Ave (Leslie Street), Toronto ON M4L 1A1",Toronto,M4L 1A1
850,Fast Food Restaurant,43.659631,-79.329011,"731 Eastern Ave (at Leslie St), Toronto ON M4M 3H6",Toronto,M4M 3H6
851,Coffee Shop,43.659677,-79.328343,"23 Leslie St (at Leslie), Toronto ON M4M 3H9",Toronto,M4M 3H9
852,"Cafe, Coffee, and Tea House",43.663023,-79.33177,"1186 Queen St E (Curzon), Toronto ON M4M 1L4",Toronto,M4M 1L4
853,Jewelry Store,43.658153,-79.330019,"1015 Lake Shore Blvd E, Toronto ON M4M 1B4",Toronto,M4M 1B4
854,Clothing Store,43.658658,-79.328462,"1015 Lake Shore Blvd E (Leslie St.), Toronto ON M4M 1B4",Toronto,M4M 1B4
855,Drugstore,43.658173,-79.329741,"1015 Lake Shore Blvd E (at Leslie St.), Toronto ON M4M 1B4",Toronto,M4M 1B4
856,Coffee Shop,43.651731,-79.365327,"343 King St E (btwn Princess & Berkeley St), Toronto ON M5A 1L1",Toronto,M5A 1L1
857,Grocery Store,43.651189,-79.365054,"222 Front St E (at Parliament St), Toronto ON M5A 4T9",Toronto,M5A 4T9
858,Pizzeria,43.652042,-79.366452,"260 King St E (Princess), Toronto ON M5A 4L5",Toronto,M5A 4L5
859,Music Venue,43.652776,-79.364839,"70 Berkeley St (at Adelaide St.), Toronto ON M5A 2W6",Toronto,M5A 2W6
860,Discount Store,43.651182,-79.365147,"226 Front St E (at Berkeley St), Toronto ON M5A 4T9",Toronto,M5A 4T9
861,Theater,43.650538,-79.363969,"26 Berkeley St (btwn Front St. E & The Esplanade), Toronto ON M5A 2W3",Toronto,M5A 2W3
862,Furniture and Home Store,43.652379,-79.364121,"310 King St E (Parliament), Toronto ON M5A 1K6",Toronto,M5A 1K6
863,Bakery,43.653473,-79.362191,"362 King St E (Trinity St), Toronto ON M5A 1K9",Toronto,M5A 1K9
864,Coffee Shop,43.651204,-79.367955,"251 King St E (Sherbourne Street), Toronto ON M5A 1K2",Toronto,M5A 1K2
865,Playground,43.683458,-79.377619,"20 Scholfield Ave (at Edgar Ave.), Toronto ON M4W 2Y3",Toronto,M4W 2Y3
866,Grocery Store,43.686494,-79.375248,"446 Summerhill Ave (btwn. MacLennan Ave. and Glen Rd.), Toronto ON M4W 2E4",Toronto,M4W 2E4
867,Park,43.679924,-79.377571,"200 Park Dr (at Mt. Pleasant Rd.), Toronto ON M4W 1X9",Toronto,M4W 1X9
868,Flower Store,43.686119,-79.376545,"410 Summerhill Ave (Mt. Pleasant Rd.), Toronto ON M4W 2E4",Toronto,M4W 2E4
869,Deli,43.68606,-79.376582,"408 Summerhill Ave, Toronto ON M4W 2E4",Toronto,M4W 2E4
870,Bar,43.64992,-79.434274,"1574 Dundas St W (Dufferin), Toronto ON M6K 1T8",Toronto,M6K 1T8
871,Coffee Shop,43.649595,-79.433334,"1541 Dundas St W (Sheridan Avenue), Toronto ON M6K 1T6",Toronto,M6K 1T6
872,Dining and Drinking,43.649465,-79.430508,"1454 Dundas St W, Toronto ON M6J 1Y6",Toronto,M6J 1Y6
873,Retail,43.649485,-79.43023,"1447 Dundas St W, Toronto ON M6J 1Y7",Toronto,M6J 1Y7
874,Thai Restaurant,43.649485,-79.43023,"1442 Dundas St W (at Gladstone Ave), Toronto ON M6J 1Y6",Toronto,M6J 1Y6
875,Bakery,43.649926,-79.434181,"1566 Dundas St W (at Sheridan), Toronto ON M6K 1T8",Toronto,M6K 1T8
876,Bar,43.649505,-79.421491,"1164 Dundas St W (Ossington), Toronto ON M6J 1X4",Toronto,M6J 1X4
877,Café,43.649676,-79.43531,"1615 Dundas St W (Brock avenue), Toronto ON M6K 1T9",Toronto,M6K 1T9
878,Dining and Drinking,43.649779,-79.430044,"1438 Dundas St W (Gladstone), Toronto ON M6J 1Y6",Toronto,M6J 1Y6
879,Beer Bar,43.649093,-79.39319,"137 Peter St (Peter & Richmond), Toronto ON M5V 2H3",Toronto,M5V 2H3
880,Cosmetics Store,43.649484,-79.394,"312 Queen St W (at Spadina Ave), Toronto ON M5V 2A2",Toronto,M5V 2A2
881,Gift Store,43.647804,-79.394714,"401 Richmond St W (Spadina), Toronto ON M5V 3A8",Toronto,M5V 3A8
882,Bookstore,43.647849,-79.394862,"401 Richmond St W (at Spadina Ave.), Toronto ON M5V 3A8",Toronto,M5V 3A8
883,Sporting Goods Retail,43.649507,-79.392134,"339 Queen St W (Beverley), Toronto ON M5V 2A4",Toronto,M5V 2A4
884,Shoe Store,43.648729,-79.39589,"437 Queen St W (at Spadina Ave.), Toronto ON M5V 2A5",Toronto,M5V 2A5
885,French Restaurant,43.648611,-79.395965,"3rd Floor (Queen Street), Toronto ON M5V 2L6",Toronto,M5V 2L6
886,Music Venue,43.649069,-79.395851,"370 Queen St W (at Spadina Ave.), Toronto ON M5V 2A2",Toronto,M5V 2A2
887,Gift Store,43.648795,-79.390809,"142 John St (Richmond St W), Toronto ON M5V 2E3",Toronto,M5V 2E3
888,Coffee Shop,43.669537,-79.448551,"31 Powerhouse St (Lansdowne Ave), Toronto ON M6H 0C7",Toronto,M6H 0C7
889,Dog Park,43.671997,-79.44946,"1200 Lansdowne Ave, Toronto ON M6H 3Z8",Toronto,M6H 3Z8
890,Park,43.67369,-79.45165,"1200 Lansdowne Ave, Toronto ON M6H 3Z8",Toronto,M6H 3Z8
891,Car Dealership,43.67205,-79.446429,"3526 Lake Shore Blvd W, Toronto ON M8W 1N6",Toronto,M8W 1N6
892,Bakery,43.676486,-79.448732,"1311 Saint Clair Ave W, Toronto ON M6E 1C2",Toronto,M6E 1C2
893,Italian Restaurant,43.676063,-79.450675,"1351 St Clair Ave W (Lansdowne), Toronto ON M6E 1C5",Toronto,M6E 1C5
894,BBQ Joint,43.666536,-79.449659,"1444 Dupont St (Symington), Toronto ON M6P 4H3",Toronto,M6P 4H3
895,Jewelry Store,43.670425,-79.456364,"1960 Davenport Rd (Dupont and Lansdown), Toronto ON M6N 1C2",Toronto,M6N 1C2
896,Beer Bar,43.644898,-79.381397,"65 Front St W, Toronto ON M5J 1E6",Toronto,M5J 1E6
897,Diner,43.645226,-79.383833,"144 Front St W (at University Ave), Toronto ON M5J 2L7",Toronto,M5J 2L7
898,Beer Garden,43.64533,-79.383943,"146 Front St W (btwn Simcoe & York), Toronto ON M5J 1G2",Toronto,M5J 1G2
899,Café,43.644372,-79.383229,"7 Station St (at SkyWalk), Toronto ON M5J 1C3",Toronto,M5J 1C3
900,Dining and Drinking,43.645772,-79.381723,"100 Front St W, Toronto ON M5J 1E3",Toronto,M5J 1E3
901,Coffee Shop,43.644847,-79.380547,"65 Front St W (btwn Bay St & York St), Toronto ON M5J 1E6",Toronto,M5J 1E6
902,Café,43.644585,-79.381066,"65 Front St W (York St), Toronto ON M5J 1E6",Toronto,M5J 1E6
903,Wine Bar,43.644831,-79.385406,"200 Front St W (at Simcoe St), Toronto ON M5V 3J1",Toronto,M5V 3J1
904,Dining and Drinking,43.64732,-79.381268,"66 Wellington St W (btwn York & Bay St.), Toronto ON M5K 1J3",Toronto,M5K 1J3
905,Seafood Restaurant,43.645025,-79.396655,"469 King St W (btwn Spadina & Brant St.), Toronto ON M5V 1K4",Toronto,M5V 1K4
906,Tapas Restaurant,43.645482,-79.396541,"478 King St W (btwn Spadina Ave. & Brant St.), Toronto ON M5V 0A8",Toronto,M5V 0A8
907,Dining and Drinking,43.645457,-79.396116,"480 King St W (at Spadina Ave.), Toronto ON M5V 1L7",Toronto,M5V 1L7
908,Event Space,43.64483,-79.39625,"461 King St W, Toronto ON M5V 1K4",Toronto,M5V 1K4
909,Coffee Shop,43.645511,-79.395377,"460 King St W (at Spadina Ave), Toronto ON M5V 1L7",Toronto,M5V 1L7
910,Bar,43.644144,-79.396421,"420A Wellington St W (Spadina Ave), Toronto ON M5V 1E3",Toronto,M5V 1E3
911,American Restaurant,43.644901,-79.396822,"485 King St W (Spadina Avenue), Toronto ON M5V 1K4",Toronto,M5V 1K4
912,Furniture and Home Store,43.646163,-79.395668,"82 Spadina Ave, Toronto ON M5V 2J3",Toronto,M5V 2J3
913,Park,43.656987,-79.433583,"875 Dufferin St (btw Sylvan & Dufferin Park), Toronto ON M6H 3K8",Toronto,M6H 3K8
914,Farmers Market,43.656935,-79.433528,"875 Dufferin St (Dufferin Park Ave.), Toronto ON M6H 4B1",Toronto,M6H 4B1
915,American Restaurant,43.655282,-79.433871,"900 Dufferin St, Toronto ON M6H 4A9",Toronto,M6H 4A9
916,Beer Store,43.656927,-79.434415,"900 Dufferin St (at Croatia St), Toronto ON M6H 4A9",Toronto,M6H 4A9
917,Department Store,43.654949,-79.433818,"900 Dufferin St (Dufferin Mall), Toronto ON M6H 4A9",Toronto,M6H 4A9
918,Toy Store,43.657002,-79.43569,"900 Dufferin St (Dufferin Mall), Toronto ON M6H 4A9",Toronto,M6H 4A9
919,Middle Eastern Restaurant,43.652594,-79.433019,"1120 College St (at Dufferin Ave), Toronto ON M6H 1B6",Toronto,M6H 1B6
920,Clothing Store,43.65492,-79.434982,"Dufferin Mall (btwn Muir & Croatia), Toronto ON M6H 4A9",Toronto,M6H 4A9
921,Vietnamese Restaurant,43.652343,-79.434148,"1156 College St (at Sheridan Ave.), Toronto ON M6H 1B6",Toronto,M6H 1B6
922,Coffee Shop,43.677934,-79.390305,"1088 Yonge St (at Roxborough St), Toronto ON M4W 2L4",Toronto,M4W 2L4
923,Bar,43.677673,-79.390029,"1068 Yonge St (btwn Roxborough St. & Gibson Ave.), Toronto ON M4W 2L4",Toronto,M4W 2L4
924,Café,43.678274,-79.390265,"1094 Yonge St (Roxborough Street West), Toronto ON M4W 2L6",Toronto,M4W 2L6
925,Juice Bar,43.678861,-79.390686,"5 MacPherson Ave (Yonge St.), Toronto ON M5R 1W7",Toronto,M5R 1W7
926,American Restaurant,43.678314,-79.389711,"1055 Yonge St (Roxborough St West), Toronto ON M4W 2L2",Toronto,M4W 2L2
927,Italian Restaurant,43.678711,-79.390429,"1112 Yonge St (btwn Macpherson Ave & Roxborough St W), Toronto ON M4W 2L6",Toronto,M4W 2L6
928,BBQ Joint,43.6771,-79.389423,"4 Crescent Rd (Yonge), Toronto ON M4W 1S9",Toronto,M4W 1S9
929,Bistro,43.678659,-79.390374,"1108 Yonge St (Price), Toronto ON M4W 2L6",Toronto,M4W 2L6
930,Park,43.676047,-79.390004,"1 Ramsden Rd (Yonge Street), Toronto ON M6E 2N1",Toronto,M6E 2N1
931,Italian Restaurant,43.680057,-79.390456,"1095 Yonge St (at Price St.), Toronto ON M4W 2L7",Toronto,M4W 2L7
932,Diner,43.645098,-79.414943,"894 Queen St W (at Crawford), Toronto ON M6J 1G3",Toronto,M6J 1G3
933,Diner,43.645256,-79.414314,"872 Queen St W (Crawford), Toronto ON M6J 1G3",Toronto,M6J 1G3
934,Gift Store,43.644755,-79.416571,"940 Queen St W (Shaw St), Toronto ON M6J 1G8",Toronto,M6J 1G8
935,Park,43.650061,-79.4177,"1053 Dundas St W (at Gore Vale Ave.), Toronto ON M5H 2N2",Toronto,M5H 2N2
936,Art Gallery,43.646973,-79.417721,"180 Shaw St, Toronto ON M6J 2W5",Toronto,M6J 2W5
937,Clothing Store,43.644656,-79.417163,"962 Queen St W, Toronto ON M6J 1G8",Toronto,M6J 1G8
938,Café,43.645339,-79.412411,"907 Queen St W (btwn Strachan & Walnut), Toronto ON M6J 1G5",Toronto,M6J 1G5
939,Retail,43.64455,-79.417847,"972 Queen St W (Givins St.), Toronto ON M6J 1H1",Toronto,M6J 1H1
940,Bookstore,43.645576,-79.411467,"883 Queen St W (nr Walnut Ave.), Toronto ON M6J 1G5",Toronto,M6J 1G5
941,Japanese Restaurant,43.649644,-79.426516,"1330 Dundas St W (at Rusholme Rd), Toronto ON M6J 1Y1",Toronto,M6J 1Y1
942,Italian Restaurant,43.649593,-79.425666,"1288 Dundas St W (Coolmine Rd.), Toronto ON M6J 1X7",Toronto,M6J 1X7
943,Cocktail Bar,43.6494,-79.427552,"1369 Dundas St W, Toronto ON M6J 1Y3",Toronto,M6J 1Y3
944,Dining and Drinking,43.649666,-79.425444,"1282 Dundas St W (Dundas Street West & Dovercourt Road), Toronto ON M6J 1X7",Toronto,M6J 1X7
945,Night Club,43.649344,-79.426,"1307 Dundas St W (Coolmine Road), Toronto ON M6J 1X8",Toronto,M6J 1X8
946,Bar,43.649679,-79.425259,"1276 Dundas St W, Toronto ON M6J 1X7",Toronto,M6J 1X7
947,Vegan and Vegetarian Restaurant,43.649386,-79.427737,"1371 Dundas St W (Beaconsfield), Toronto ON M6J 1Y3",Toronto,M6J 1Y3
948,Sports Bar,43.649561,-79.425334,"1280 Dundas St W (Dovercourt), Toronto ON M6J 1X7",Toronto,M6J 1X7
949,Korean Restaurant,43.649327,-79.427774,"1375 Dundas St W, Toronto ON M6J 1Y3",Toronto,M6J 1Y3
950,Coffee Shop,43.649351,-79.428993,"1413 Dundas St W, Toronto ON M6J 1Y4",Toronto,M6J 1Y4
951,Swimming Pool,43.661181,-79.36117,"640 Dundas St E (at Sumach St.), Toronto ON M5A 2B8",Toronto,M5A 2B8
952,Concert Hall,43.659814,-79.362216,"585 Dundas St E (btwn Regent & Sumach), Toronto ON M5A 2B7",Toronto,M5A 2B7
953,Bakery,43.660688,-79.359455,"665 Dundas St E (Tubman), Toronto ON M5A 0P4",Toronto,M5A 0P4
954,Drugstore,43.660266,-79.361399,"593 Dundas St E (at Regent Park Blvd), Toronto ON M5A 0C7",Toronto,M5A 0C7
955,Sandwich Spot,43.659881,-79.361291,"67 Regent Park Blvd, Toronto ON M5A 0K7",Toronto,M5A 0K7
956,Dining and Drinking,43.660012,-79.361031,"69 Regent Park Blvd (at Dundas St E), Toronto ON M5A 0K7",Toronto,M5A 0K7
957,Dining and Drinking,43.660003,-79.362713,"555 Dundas St E (Sackville St), Toronto ON M5A 2B7",Toronto,M5A 2B7
958,Fast Food Restaurant,43.660268,-79.360604,"615 Dundas St E (Sumach), Toronto ON M5A 0C7",Toronto,M5A 0C7
959,Coffee Shop,43.657932,-79.359532,"118 Sumach St (at Shuter St), Toronto ON M5A 3J9",Toronto,M5A 3J9
960,Fried Chicken Joint,43.660595,-79.359955,"654 Dundas St E, Toronto ON M5A 0R3",Toronto,M5A 0R3
961,Pizzeria,43.648845,-79.368749,"164 the Esplanade (at Frederick St), Toronto ON M5A 4A5",Toronto,M5A 4A5
962,Sushi Restaurant,43.649589,-79.365454,"222 the Esplanade, Toronto ON M5A 4M8",Toronto,M5A 4M8
963,Dining and Drinking,43.649582,-79.365547,"222 the Esplanade (Princess), Toronto ON M5A 4M8",Toronto,M5A 4M8
964,Music Venue,43.649961,-79.368833,"165 Front St E, Toronto ON M5A 3Z4",Toronto,M5A 3Z4
965,Karaoke Bar,43.650165,-79.368351,"169 Front St E (at Sherbourne St), Toronto ON M5A 3Z4",Toronto,M5A 3Z4
966,Burrito Restaurant,43.65008,-79.367963,"134 Lower Sherbourne St, Toronto ON M5A 4J4",Toronto,M5A 4J4
